"Nombre","Latitud","Longitud"
"ALUMBRADO PUBLICO SAN PEDRO TLAQUEPAQUE","20.634024","-103.316273"
"BIBLIOTECA 9 LAS HUERTAS SAN PEDRO TLAQUEPAQUE","20.615549","-103.305809"
"DIF TUXCACUESCO TUXCACUESCO","19.696962°","-103.980327°"
"CENTRO DE SALUD TUXCACUESCO TUXCACUESCO","19.697719","-103.982629"
"CENTRO DE SALUD TUXCACUESCO TUXCACUESCO","19.697679","-103.982628"
"OFICINA ADMINISTRATIVA DE SEGURIDAD PUBLICA TUXCACUESCO","19.697751","-103.98286"
"CENTRO DE SALUD COLONIA EJIDAL AUTLAN DE NAVARRO","19.759095°","-104.369643°"
"RESIDENCIA AUTLAN AUTLAN DE NAVARRO","19.76505556","-104.3522222"
"HOSPITAL REGIONAL DE AUTLAN AUTLAN DE NAVARRO","19.768794°","-104.355013°"
"OFICINAS REGIONALES AUTLAN DE NAVARRO","19.770672","-104.366483"
"REGION SIERRA DE AMULA AUTLAN DE NAVARRO","19.771209","-104.361368"
"REGION COSTA SUR AUTLAN AUTLAN DE NAVARRO","19.772816","-104.367801"
"CENTRO DE SALUD AUTLAN AUTLAN DE NAVARRO","19.773201","-104.368001"
"MODULO DE ATENCION REGIONAL  AUTLAN DE NAVARRO","19.773589","-104.363679"
"UNEMES SALUD MENTAL AUTLAN AUTLAN DE NAVARRO","19.776001","-104.376001"
"CENTRO DE SALUD ARQUITOS AUTLAN DE NAVARRO","19.782401","-104.366001"
"COORDINACION REGIONAL DE REGIONES PRORITARIAS AUTLAN AUTLAN DE NAVARRO","19.782353","-104.367312"
"CENTRO DE SALUD TONAYA TONAYA","19.784401","-103.971001"
"PRESIDENCIA MUNICIPAL DE TONAYA, JALISCO TONAYA","19.786637","-103.972143"
"MODULO DE ATENCION REGIONAL  EL GRULLO","19.803561","-104.215626"
"REGION SIERRA AMULA EL GRULLO","19.804097","-104.21824"
"CENTRO DE SALUD EL GRULLO EL GRULLO","19.805301","-104.215001"
"OFICINAS REGIONALES EL GRULLO","19.805256","-104.217525"
"UNEME CRONICO EL GRULLO EL GRULLO","19.812803°","-104.226678°"
"CENTRO DE SALUD EL LIMON EL LIMON","19.827306°","-104.161815°"
"RESIDENCIA SAYULA SAYULA","19.8758965","-103.6019885"
"HOSPITAL COMUNITARIO SAYULA SAYULA","19.883654","-103.607343"
"OFICINA ADMINISTRATIVA MAZAMITLA","19.912394","-103.020567"
"OFICINA ADMINISTRATIVA MAZAMITLA","19.913538","-103.020616"
"SUBREGION MAZAMITLA MAZAMITLA","19.919464","-103.020454"
"OFICINA ADMINISTRATIVA MAZAMITLA","19.914657","-103.023062"
"OFICINA ADMINISTRATIVA MAZAMITLA","19.916094","-103.020604"
"H. AYUNTAMIENTO MAZAMITLA","19.916144","-103.020666"
"OFICINA ADMINISTRATIVA MAZAMITLA","19.916311","-103.018233"
"TELEGRAFOS MAZAMITLA","19.918626","-103.019124"
"OFICINA ADMINISTRATIVA MAZAMITLA","19.918942","-103.018961"
"DIF MUNICIPAL VALLE DE JUAREZ VALLE DE JUAREZ","19.932905","-102.944273"
"PRESIDENCIA MUNICIPAL DE VALLE DE JUAREZ VALLE DE JUAREZ","19.932654","-102.943547"
"CENTRO DE SALUD VALLE DE JUAREZ VALLE DE JUAREZ","19.935801","-102.945001"
"PRESIDENCIA MUNICIPAL TAPALPA","19.944598","-103.757441"
"OFICINAS ADMINISTRATIVAS DEL AYUNTAMIENTO TAPALPA","19.944949","-103.757319"
"OFICINAS ADMINISTRATIVAS DEL AYUNTAMIENTO  TAPALPA","19.945098","-103.757571"
"CENTRO DE SALUD CONCEPCION DE BUENOS AIRES CONCEPCION DE BUENOS AIRES","19.973918","-103.260014"
"DIF MUNICIPAL CONCEPCION DE BUENOS AIRES","19.981465","-103.263149"
"CENTRO DE SALUD LA MANZANILLA DE LA PAZ LA MANZANILLA DE LA PAZ","20.006617","-103.153174"
"AYUNTAMIENTO AMACUECA AMACUECA","20.011695","-103.600624"
"CENTRO DE SALUD JUANACATLAN TAPALPA","20.032701","-103.687001"
"PRESIDENCIA MUNICIPAL TECHALUTA DE MONTENEGRO","20.074656","-103.550619"
"DIF MUNICIPAL TECHALUTA DE MONTENEGRO","20.074958","-103.549144"
"CENTRO DE SALUD TUXCUECA TUXCUECA","20.154701","-103.183001"
"H. AYUNTAMIENTO DE TUXCUECA TUXCUECA","20.155083","-103.185123"
"CENTRO DE SALUD VILLA EMILIANO ZAPATA TIZAPAN EL ALTO","20.164976","-102.993945"
"CENTRO DE SALUD SAN LUIS SOYATLAN TUXCUECA","20.194903°","-103.303134°"
"CENTRO DE SALUD ZACOALCO ZACOALCO DE TORRES","20.232034","-103.57429"
"SUBREGION ZACOALCO ZACOALCO DE TORRES","20.225178","-103.575794"
"ALMACEN GENERAL ZACOALCO DE TORRES","20.229088","-103.576386"
"CENTRO DE CONVENCIONES ZACOALCO DE TORRES","20.23049","-103.571136"
"SEGURIDAD CIUDADANA ZACOALCO DE TORRES","20.23074","-103.570965"
"AYUNTAMIENTO DE ZACOALCO DE TORRES ZACOALCO DE TORRES","20.230852","-103.571199"
"AYUNTAMIENTO DE IXTLAHUACAN IXTLAHUACAN DE LOS MEMBRILLOS","20.34904","-103.193047"
"CASA EJIDAL IXTLAHUACAN DE LOS MEMBRILLOS","20.349128","-103.191269"
"INSTITUTO DE LA MUJER IXTLAHUACAN DE LOS MEMBRILLOS","20.34922","-103.195158"
"SISTEMA DEL DESARROLLO INTEGRAL DE LA FAMILIA DIF IXTLAHUACAN DE LOS MEMBRILLOS","20.349589","-103.195558"
"SERVICIOS MEDICOS MUNICIPALES IXTLAHUACAN DE LOS MEMBRILLOS","20.352543","-103.200486"
"DIRECCION DE PROTECCION CIVIL Y BOMBEROS IXTLAHUACAN DE LOS MEMBRILLOS","20.355758","-103.195553"
"H. AYUNTAMIENTO DE COCULA COCULA","20.365145","-103.82235"
"CENTRO DE SALUD COCULA COCULA","20.367201","-103.830001"
"HOSPITAL REGIONAL COCULA COCULA","20.375068°","-103.819941°"
"VIALIDAD COCULA COCULA","20.372692","-103.81974"
"CENTRO DE SALUD COFRADIA DE LA LUZ COCULA","20.405843","-103.768389"
"DELEGACION MUNICIPAL DE COFRADIA DE LA LUZ COCULA","20.405837","-103.7686949"
"CENTRO DE SALUD SAN LUCAS EVANGELISTA TLAJOMULCO DE ZUÑIGA","20.406111","-103.350001"
"SERVICIOS MEDICOS MUNICIPALES ACATLAN DE JUAREZ","20.417946","-103.596088"
"CASA EJIDAL EL PLAN ACATLAN DE JUAREZ","20.418082","-103.607568"
"DIF EL PLAN ACATLAN DE JUAREZ","20.418884","-103.607487"
"SUBREGION CENTRO ACATLAN ACATLAN DE JUAREZ","20.419484","-103.593014"
"CENTRO DE SALUD ACATLAN DE JUAREZ ACATLAN DE JUAREZ","20.419901","-103.596001"
"PRESIDENCIA MUNICIPAL DE ACATLAN DE JUAREZ ACATLAN DE JUAREZ","20.422455","-103.592689"
"DIF ACATLAN DE JUAREZ ACATLAN DE JUAREZ","20.422601","-103.592877"
"OBRAS PUBLICAS ACATLAN DE JUAREZ","20.42276","-103.590047"
"CASA EJIDAL ACATLAN DE JUAREZ 1 ACATLAN DE JUAREZ","20.423146","-103.590714"
"CASA EJIDAL ACATLAN DE JUAREZ 2 ACATLAN DE JUAREZ","20.423554","-103.592735"
"DIF MIRAVALLE ACATLAN DE JUAREZ","20.426946","-103.586432"
"DELEGACION MIRAVALLE ACATLAN DE JUAREZ","20.427165","-103.588069"
"CASA EJIDAL MIRAVALLE ACATLAN DE JUAREZ","20.427328","-103.586656"
"CASA EJIDAL LA RESOLANA ACATLAN DE JUAREZ","20.427378","-103.599209"
"DELEGACION LA RESOLANA ACATLAN DE JUAREZ","20.428559","-103.600689"
"DIF LA RESOLANA ACATLAN DE JUAREZ","20.428609","-103.600762"
"CASA EJIDAL BELLAVISTA ACATLAN DE JUAREZ","20.435652","-103.636643"
"REGISTRO CIVIL ACATLAN DE JUAREZ","20.436259","-103.634449"
"DELEGACION BELLAVISTA ACATLAN DE JUAREZ","20.436382","-103.634371"
"CENTRO DE SALUD TLAJOMULCO DE ZUNIGA TLAJOMULCO DE ZUÑIGA","20.475901","-103.452001"
"CENTRO DE SALUD LA ALAMEDA TLAJOMULCO DE ZUÑIGA","20.496584","-103.250158"
"CENTRO DE ATENCION INTEGRAL EN SALUD MENTAL ESTANCIA PROLONGADA TLAJOMULCO DE ZUÑIGA","20.505101","-103.294001"
"BIBLIOTECA PUBLICA MUNICIPAL TLAJOMULCO DE ZUÑIGA","20.50542","-103.363312"
"CENTRO DE ATENCION PRIMARIA EN ADICCIONES NUEVA VIDA TLAJOMULCO TLAJOMULCO DE ZUÑIGA","20.518601","-103.376001"
"CENTRO DE SALUD SAN ISIDRO MAZATEPEC TALA","20.522078","-103.614604"
"UNIDAD DE ATENCION A LA VIOLENCIA INTRAFAMILIAR TLAJOMULCO DE ZUNIGA TLAJOMULCO DE ZUÑIGA","20.523925","-103.372172"
"ESTACION DE MONITOREO  ATMOSFERICO SANTA FE TLAJOMULCO DE ZUÑIGA","20.528912","-103.377146"
"CENTRO DE SALUD SAN SEBASTIAN EL GRANDE TLAJOMULCO DE ZUÑIGA","20.529281","-103.430361"
"CENTRO DE SALUD NICOLAS R. CASILLAS TLAJOMULCO DE ZUÑIGA","20.547701","-103.468001"
"OFICINA DE REGISTRO CIVIL NO. 4 (SANTA ANITA) SAN PEDRO TLAQUEPAQUE","20.549251","-103.441744"
"BIBLIOTECA 10 SANTA ANITA SAN PEDRO TLAQUEPAQUE","20.549439","-103.442311"
"CENTRO DE SALUD SANTA ANITA SAN PEDRO TLAQUEPAQUE","20.551901","-103.447001"
"SECTOR DE ZONA 5 SAN PEDRO TLAQUEPAQUE","20.554631","-103.439332"
"CENTRO DE SALUD LA HUIZACHERA TLAJOMULCO DE ZUÑIGA","20.560576","-103.332189"
"BIBLIOTECA 8 TOLUQUILLA SAN PEDRO TLAQUEPAQUE","20.577344","-103.369758"
"DELEGACION TOLUQUILLA SAN PEDRO TLAQUEPAQUE","20.577904","-103.369747"
"DELEGACION ZAPOTLANEJO","20.57991","-103.122979"
"CENTRO DE SALUD PINTAS DE ABAJO SAN PEDRO TLAQUEPAQUE","20.581671","-103.330831"
"PLANTA DE REBOMBEO 2 SAN PEDRO TLAQUEPAQUE","20.581878","-103.336783"
"OFICINA DE REGISTRO CIVIL NO. 15 SAN PEDRO TLAQUEPAQUE","20.581967","-103.389547"
"DELEGACION SAN SEBASTIANITO SAN PEDRO TLAQUEPAQUE","20.582137","-103.386302"
"UNIDAD DE ATENCION A LA VIOLENCIA INTRAFAMILIAR SAN PEDRO TLAQUEPAQUE SAN PEDRO TLAQUEPAQUE","20.582397","-103.335536"
"CENTRO DE SALUD JAUJA TONALA","20.586101","-103.225871"
"CENTRO DE SALUD SAN JOSE TATEPOSCO TONALA","20.586296","-103.225911"
"CENTRO INTEGRAL DE SALUD MENTAL TLAQUEPAQUE SAN PEDRO TLAQUEPAQUE","20.586321","-103.307581"
"CENTRO DE SALUD LOMAS DEL 4 SAN PEDRO TLAQUEPAQUE","20.588001","-103.348001"
"OFICINA DE REGISTRO CIVIL NO. 6 (SAN SEBASTIANITO) SAN PEDRO TLAQUEPAQUE","20.588606","-103.387186"
"UNIDAD MEDICA LA GUADALUPANA SAN PEDRO TLAQUEPAQUE","20.592906","-103.325307"
"C.D.C. NO. 25 EL CAMPANARIO ZAPOPAN","20.5932629","-103.4367116"
"CENTRO DE SALUD LA DURAZNERA SAN PEDRO TLAQUEPAQUE","20.59397","-103.319039"
"CENTRO DE SALUD URBANO MANUEL LOPEZ COTILLA SAN PEDRO TLAQUEPAQUE","20.593961","-103.319161"
"CENTRO DE SALUD SANTA MARIA TEQUEPEXPAN SAN PEDRO TLAQUEPAQUE","20.596591","-103.393651"
"SECTOR DE ZONA 2 SAN PEDRO TLAQUEPAQUE","20.596718","-103.28251"
"BIBLIOTECA 6 SANTA MARIA TEQUEPEXPAN SAN PEDRO TLAQUEPAQUE","20.596932","-103.394135"
"CENTRO DE SALUD SAN MARTIN DE LAS FLORES SAN PEDRO TLAQUEPAQUE","20.597501","-103.288001"
"CENTRO DE SALUD SANTA PAULA TONALA","20.598017","-103.242915"
"CENTRO DE SALUD URBANO TOLUQUILLA SAN PEDRO TLAQUEPAQUE","20.598201","-103.277001"
"OFICINA DE REGISTRO CIVIL NO. 9 (SAN MARTIN DE LAS FLORES) SAN PEDRO TLAQUEPAQUE","20.600546","-103.284063"
"SECTOR TRES ZAPOPAN","20.60400009","-103.433998"
"SALUD ANIMAL SAN PEDRO TLAQUEPAQUE","20.604857","-103.381861"
"UMOM SAN PEDRO TLAQUEPAQUE","20.605866","-103.402205"
"CENTRO DE DIA BUGAMBILIAS ZAPOPAN","20.606061","-103.454182"
"BIBLIOTECA 7 TATEPOSCO SAN PEDRO TLAQUEPAQUE","20.606452","-103.259218"
"PROTECCION CIVIL ZAPOTLANEJO","20.610659","-103.085991"
"CENTRO DE SALUD CUISILLOS TALA","20.607956","-103.775872"
"SECTOR DE ZONA 4 SAN PEDRO TLAQUEPAQUE","20.607949","-103.395745"
"CAMPAMENTO KM7 SAN PEDRO TLAQUEPAQUE","20.6091136","-103.3265937"
"BIBLIOTECA 4 MIRAVALLE SAN PEDRO TLAQUEPAQUE","20.609119","-103.348545"
"CENTRO DE SALUD LAS JUNTAS SAN PEDRO TLAQUEPAQUE","20.609201","-103.337001"
"LAS HUERTAS SAN PEDRO TLAQUEPAQUE","20.610206","-103.303583"
"CENTRO DE SALUD FRANCISCO SARABIA ZAPOPAN","20.610201","-103.436001"
"ASEO PUBLICO SAN PEDRO TLAQUEPAQUE","20.610535","-103.281744"
"BIBLIOTECA LIC. CARLOS CASTILLO PEREZA GUADALAJARA","20.61146","-103.376908"
"BIBLIOTECA 2 LAS JUNTAS SAN PEDRO TLAQUEPAQUE","20.611731","-103.33094"
"ESTACION DE MONITOREO  ATMOSFERICO MIRAVALLE GUADALAJARA","20.61310389","-103.3434418"
"C.D.C. NO. 10 FRANCISCO SARABIA ZAPOPAN","20.613192","-103.431976"
"CENTRO DE SALUD NUEVA ESPANA GUADALAJARA","20.614501","-103.391001"
"BIBLIOTECA 11 SAN PEDRITO SAN PEDRO TLAQUEPAQUE","20.614883","-103.287757"
"CENTRO DE ATENCION PRIMARIA EN ADICCIONES NUEVA VIDA TONALA II TONALA","20.615593","-103.265129"
"CENTRO DE ATENCION PRIMARIA EN ADICCIONES NUEVA VIDA TLAQUEPAQUE SAN PEDRO TLAQUEPAQUE","20.615701","-103.295001"
"VIALIDAD Y TRANSITO MUNICIPAL ZAPOTLANEJO","20.615839","-103.069215"
"PROYECTOS Y CONSTRUCCIONES ZAPOTLANEJO","20.622048","-103.069187"
"CENTRO DE SALUD SAN PEDRITO SAN PEDRO TLAQUEPAQUE","20.616501","-103.288001"
"CENTRO DE SALUD POLANQUITO GUADALAJARA","20.617301","-103.373001"
"MIRAVALLE GUADALAJARA","20.617583","-103.344229"
"CENTRO DE SALUD ARBOLEDAS DEL SUR GUADALAJARA","20.617701","-103.385001"
"DISPENSARIO MEDICO Y CLINICA DENTAL DE LA ''U.A.P.S. ARTES PLASTICAS'' GUADALAJARA","20.617776","-103.344691"
"CENTRO DE SALUD SANTA ANA TEPETITLAN ZAPOPAN","20.619601","-103.457001"
"DELEGACION SANTA ANA TEPETITLAN ZAPOPAN","20.619708","-103.456375"
"BIBLIOTECA PUBLICA MUNICIPAL ZAPOPAN","20.619904","-103.456716"
"OFICIALIA NO. 10 SANTA ANA TEPETITLAN ZAPOPAN","20.619871","-103.456897"
"BIBLIOTECA SANTA ANA TEPETITLAN ZAPOPAN","20.619918","-103.459745"
"PROTECCION CIVIL SAN PEDRO TLAQUEPAQUE","20.620387","-103.305443"
"CENTRO DE SALUD SANTA CRUZ DE LAS HUERTAS TONALA","20.620917","-103.271028"
"C.D.C. NO. 3 SANTA ANA TEPETITLAN ZAPOPAN","20.6210404","-103.4558577"
"CENTRO DE SALUD LOS CAJETES ZAPOPAN","20.622101","-103.438001"
"CENTRO DE SALUD ECHEVERRIA GUADALAJARA","20.622418","-103.367719"
"AYUNTAMIENTO ZAPOTLANEJO","20.622541","-103.069373"
"BIBLIOTECA ESMERALDA VILLASENOR DE MATUTE GUADALAJARA","20.622767","-103.359995"
"PROGRAMAS SOCIALES ZAPOTLANEJO","20.622619","-103.069224"
"C.D.C. NO. 14 EL BRISENO ZAPOPAN","20.623308","-103.434765"
"CASA ADULTO MAYOR ZAPOTLANEJO","20.62361","-103.074743"
"CENTRO DE SALUD TONALA TONALA","20.623601","-103.242001"
"CENTRO DE SALUD EL BRISENO ZAPOPAN","20.624909","-103.439001"
"C.D.C. NO. 12 JARDINES DEL IXTEPETE ZAPOPAN","20.624893","-103.441746"
"RICARDO YANEZ TONALA","20.625075","-103.263623"
"DIF ZAPOTLANEJO","20.625367","-103.060255"
"SERVICIOS MEDICOS ZAPOTLANEJO","20.6275575","-103.071662"
"CADI ZAPOTLANEJO","20.6255","-103.060225"
"SAUZ GUADALAJARA","20.62610284","-103.3890955"
"TONALA TONALA","20.626797","-103.243084"
"CENTRO DE SALUD ZAPOTLANEJO DOCTOR CARLOS ALVAREZ ALVAREZ ZAPOTLANEJO","20.628601","-103.052001"
"BIBLIOTECA BEATRIZ HERNANDEZ GUADALAJARA","20.629032","-103.396806"
"CENTRO DE SALUD LOMA BONITA ZAPOPAN","20.629201","-103.405001"
"LOMAS DEL CAMICHIN TONALA","20.629278","-103.275029"
"CENTRO DE SALUD LOMAS DEL CAMICHIN TONALA","20.629401","-103.275001"
"ESTACION DE MONITOREO  ATMOSFERICO LAS AGUILAS ZAPOPAN","20.62960272","-103.4167725"
"SECTOR DE ZONA 1 SAN PEDRO TLAQUEPAQUE","20.629928","-103.315011"
"UNIDAD ESPECIALIZADA EN ATENCION OBSTETRICA Y CUIDADOS NEONATALES ZAPOTLANEJO","20.630901","-103.076001"
"BIBLIOTECA LAS AGUILAS ZAPOPAN","20.631153","-103.416977"
"OFICIALIA NO. 2 LAS AGUILAS ZAPOPAN","20.631699","-103.41672"
"PADRON Y LICENCIAS SAN PEDRO TLAQUEPAQUE","20.632082","-103.318773"
"LAS AGUILAS ZAPOPAN","20.632242","-103.415683"
"LAS AGUILAS ZAPOPAN","20.632303","-103.416172"
"CENTRO DE SALUD ALAMEDAS DE ZALATITAN TONALA","20.632401","-103.252001"
"SERVICIOS MEDICOS SAN PEDRO TLAQUEPAQUE","20.632354","-103.31703"
"UNIDAD DE EMERGENCIA CRUZ VERDE SUR ZAPOPAN","20.632393","-103.415653"
"CENTRO DE SALUD LA NOGALERA GUADALAJARA","20.632501","-103.343001"
"DIRECCION DE REGISTRO CIVIL NO. 1 SAN PEDRO TLAQUEPAQUE","20.632801","-103.315021"
"CAMIT SAN PEDRO TLAQUEPAQUE","20.633902","-103.289654"
"POLICIA ESCOLAR SAN PEDRO TLAQUEPAQUE","20.634204","-103.286687"
"DESARROLLO RURAL Y ECOLOGIA ZAPOTLANEJO","20.635726","-103.066755"
"CENTRO DE SALUD MIRAMAR ZAPOPAN","20.634901","-103.448001"
"TRANSPORTACION DE AGUA POTABLE EN PIPAS SAN PEDRO TLAQUEPAQUE","20.635015","-103.299276"
"JUZGADOS ADMINISTRATIVOS SAN PEDRO TLAQUEPAQUE","20.63591","-103.318829"
"INSTITUTO DE LA JUVENTUD SAN PEDRO TLAQUEPAQUE","20.636945","-103.290148"
"REGULARIZACION DE PREDIOS SAN PEDRO TLAQUEPAQUE","20.637348","-103.309814"
"SAV SAN PEDRO TLAQUEPAQUE","20.637484","-103.313736"
"C.D.C. NO. 24 MIRAMAR ZAPOPAN","20.637499","-103.450065"
"CENTRO DE SALUD URBANO SANTA ROSALIA SAN PEDRO TLAQUEPAQUE","20.637601","-103.290001"
"DIF SAN PEDRO TLAQUEPAQUE","20.638036","-103.289454"
"CONTABILIDAD Y GLOSA SAN PEDRO TLAQUEPAQUE","20.638351","-103.314374"
"OBRAS PUBLICAS SAN PEDRO TLAQUEPAQUE","20.63845","-103.310216"
"ATENCION TURISTICA SAN PEDRO TLAQUEPAQUE","20.638525","-103.311455"
"FISCALIA GENERAL DEL ESTADO DE JALISCO GUADALAJARA","20.638765","-103.361652"
"OFICINA DE REGISTRO CIVIL NO. 2 (CABECERA HIDALGO) SAN PEDRO TLAQUEPAQUE","20.638888","-103.30108"
"FISCALIA GENERAL DEL ESTADO DE JALISCO GUADALAJARA","20.63903","-103.361959"
"INSTITUTO DE LA MUJER SAN PEDRO TLAQUEPAQUE","20.639123","-103.310479"
"MUSEO REGIONAL DE LA CERAMICA SAN PEDRO TLAQUEPAQUE","20.639225","-103.314677"
"PROVEEDURIA SAN PEDRO TLAQUEPAQUE","20.63927","-103.30943"
"REGIDORES SAN PEDRO TLAQUEPAQUE","20.639283","-103.309791"
"FISCALIA GENERAL DEL ESTADO DE JALISCO GUADALAJARA","20.639345","-103.361556"
"FISCALIA GENERAL DEL ESTADO DE JALISCO GUADALAJARA","20.639377","-103.361758"
"ESTACION DE MONITOREO  ATMOSFERICO TLAQUEPAQUE SAN PEDRO TLAQUEPAQUE","20.6395355","-103.3126095"
"DEPOSITO VEHICULAR NO. 6 ZAPOPAN","20.639479","-103.443674"
"ARCHIVO MUNICIPAL GUADALAJARA","20.63968","-103.33081"
"HACIENDA MUNICIPAL SAN PEDRO TLAQUEPAQUE","20.640039","-103.31323"
"DIRECCION DE EGRESOS SAN PEDRO TLAQUEPAQUE","20.6402","-103.313731"
"DIRECCION DE CATASTRO SAN PEDRO TLAQUEPAQUE","20.640153","-103.313782"
"CASA DEL ARTESANO SAN PEDRO TLAQUEPAQUE","20.640189","-103.314454"
"CENTRO DE SALUD URBANO TLAQUEPAQUE ROSALES SAN PEDRO TLAQUEPAQUE","20.640901","-103.300001"
"TLAQUEPAQUE SAN PEDRO TLAQUEPAQUE","20.640937","-103.301357"
"BIBLIOTECA FLAVIO ROMERO VELAZCO SAN PEDRO TLAQUEPAQUE","20.640909","-103.31258"
"ASUNTOS INTERNOS SAN PEDRO TLAQUEPAQUE","20.640899","-103.317513"
"ACADEMIA MUNICIPAL SAN PEDRO TLAQUEPAQUE","20.641033","-103.313629"
"COORDINACION DE DELEGACIONES YAGENCIAS MPALES. SAN PEDRO TLAQUEPAQUE","20.641029","-103.317379"
"DIRECCION DE PATRIMONIO SAN PEDRO TLAQUEPAQUE","20.641185","-103.308748"
"SEGURIDAD PUBLICA SAN PEDRO TLAQUEPAQUE","20.641531","-103.300466"
"PATIO DE MAQUINARIA ZAPOPAN","20.6415512","-103.4427836"
"TEATRO DE CENTRO CULTURAL EL REFUGIO SAN PEDRO TLAQUEPAQUE","20.641785","-103.312744"
"PILA SECA SAN PEDRO TLAQUEPAQUE","20.641781","-103.316356"
"CENTRO CULTURAL EL REFUGIO SAN PEDRO TLAQUEPAQUE","20.642337","-103.312755"
"MUSEO PANTALEON PANDURO SAN PEDRO TLAQUEPAQUE","20.642631","-103.312775"
"INFRAESTRUCTURA CARRETERA GUADALAJARA","20.6427515","-103.341588"
"CENTRO DE SALUD EL COLLI ZAPOPAN","20.644001","-103.433001"
"CENTRO DE SALUD EL ROSARIO TONALA","20.644201","-103.262001"
"CENTRO CULTURAL LA FERRO GUADALAJARA","20.644514","-103.349676"
"CEMENTERIOS SAN PEDRO TLAQUEPAQUE","20.644557","-103.314388"
"BIBLIOTECA AGUSTIN YANEZ GUADALAJARA","20.644704","-103.328358"
"TALLER MECANICO GUADALAJARA","20.646017","-103.324406"
"OFICINA REGIONAL DE ATENCION REGION CENTRO GUADALAJARA","20.645969","-103.327719"
"RIO NILO GUADALAJARA","20.646466","-103.280694"
"CENTRO DE SALUD TALA TALA","20.647301","-103.708001"
"DISPENSARIO MEDICO Y CLINICA DENTAL DE LA ''U.A.P.S. TETLAN'' GUADALAJARA","20.647784","-103.279348"
"TANQUE SUR GUADALAJARA","20.648078","-103.372889"
"UNEMES SALUD MENTAL TONALA TONALA","20.648501","-103.228001"
"CENTRO DE SALUD PARAISOS DEL COLLI ZAPOPAN","20.649201","-103.449001"
"C.D.C. NO. 7 EL COLLI ZAPOPAN","20.64916974","-103.4551728"
"CENTRO CULTURAL PARAISOS DEL COLLI ZAPOPAN","20.649317","-103.453555"
"CENTRO DE ATENCION PRIMARIA EN ADICCIONES NUEVA VIDA TONALA 1 TONALA","20.649801","-103.218001"
"CENTRO DE SALUD LOMA BONITA TONALA","20.652901","-103.250001"
"TANQUE REVOLUCION GUADALAJARA","20.653697","-103.314928"
"UNIDAD ESPECIALIZADA EN ATENCION OBSTETRICA Y CUIDADOS NEONATALES TALA TALA","20.653701","-103.710001"
"CENTRO DE SALUD EL ZAPOTE ZAPOPAN","20.654801","-103.417001"
"POZO 15 GUADALAJARA","20.658089","-103.348801"
"CENTRO DE ATENCION PRIMARIA EN ADICCIONES NUEVA VIDA ZAPOPAN II ZAPOPAN","20.658201","-103.447001"
"CENTRO DE SALUD ZALATITAN TONALA","20.658401","-103.263001"
"BIBLIOTECA FRAY ANTONIO DE SEGOVIA GUADALAJARA","20.658766","-103.304538"
"BASE DE SEGURIDAD ZONA 5 GUADALAJARA","20.658944","-103.304471"
"UNIDAD ADMINISTRATIVA GUADALUPE ZAPOPAN","20.65892","-103.446533"
"CRIZ ZAPOPAN","20.6590003","-103.430999"
"R. MICHEL GUADALAJARA","20.6592408","-103.3455455"
"CENTRO DE SALUD URBANO SAN ANDRES II GUADALAJARA","20.659401","-103.289001"
"SECTOR DOS ZAPOPAN","20.659406","-103.447177"
"CENTRO DE SALUD TALA COLONIA GUADALUPE TALA","20.660817°","-103.712600°"
"COYULA TONALA","20.661375","-103.228964"
"DISPENSARIO MEDICO Y CLINICA DENTAL DE LA ""U.S.P.S. VALENTIN GOMEZ FARIAS"" GUADALAJARA","20.661604","-103.292669"
"EXPLANADA UNIDAD REFORMA GUADALAJARA","20.66191","-103.343298"
"SAN ANDRES GUADALAJARA","20.661951","-103.304061"
"DISPENSARIO MEDICO Y CLINICA DENTAL DE LA ""UNIDAD MEDICA DR. ERNESTO ARIAS"",  GUADALAJARA","20.662289","-103.342859"
"EXPLANADA SAN ANDRES GUADALAJARA","20.662417","-103.303885"
"CAANECA GUADALAJARA","20.662748","-103.344633"
"HOSPITAL MATERNO INFANTIL ESPERANZA LOPEZ MATEOS GUADALAJARA","20.662701","-103.351001"
"DISPENSARIO MEDICO Y CLINICA DENTAL DE LA  ""UNIDAD MEDICA DR. FRANCISCO RUIZ SANCHEZ"" GUADALAJARA","20.663132","-103.318843"
"OFICIALIA NO. 3 CHAPALITA ZAPOPAN","20.663585","-103.402687"
"BIBLIOTECA CHAPALITA ZAPOPAN","20.663736","-103.402923"
"OFICINAS CENTRALES FIPRODEFO GUADALAJARA","20.663794","-103.366392"
"TEATRO TORRES BODET GUADALAJARA","20.66545","-103.368843"
"CENTRO DE SALUD JARDINES DE SAN FRANCISCO GUADALAJARA","20.665601","-103.280001"
"SECRETARIA DE DESARROLLO RURAL GUADALAJARA","20.66579","-103.36963"
"OFICINAS CENTRALES GUADALAJARA","20.666497","-103.375942"
"BIBLIOTECA PROFR. JOSE CORNEJO FRANCO GUADALAJARA","20.668252","-103.31383"
"CENTRO DE SALUD LAGOS DE ORIENTE GUADALAJARA","20.669301","-103.290001"
"PAVO GUADALAJARA","20.6699911","-103.3536344"
"CENTRO DE SALUD YUGOSLAVIA 4 GUADALAJARA","20.670401","-103.314001"
"FISCALIA GENERAL DEL ESTADO DE JALISCO GUADALAJARA","20.671155","-103.347455"
"ESTACION DE MONITOREO  ATMOSFERICO CENTRO GUADALAJARA","20.67236667","-103.3333588"
"SECRETARIA DE DESARROLLO ECONOMICO GUADALAJARA","20.673738","-103.3694"
"RECINTOS FUNERARIOS LIBERTAD GUADALAJARA","20.6738522","-103.2983407"
"UNIDAD ESPECIALIZADA EN ATENCION OBSTETRICA Y CUIDADOS NEONATALES GUADALAJARA GUADALAJARA","20.674201","-103.33501"
"CASA MUSEO TALLER JOSE CLEMENTE OROZCO GUADALAJARA","20.67416","-103.385401"
"BIBLIOTECA LARVA GUADALAJARA","20.674933","-103.349896"
"CENTRO DE SALUD EL REFUGIO TALA","20.675217°","-103.737947°"
"CENTRO DE SALUD SAN GASPAR DE LAS FLORES TONALA","20.675701","-103.244001"
"ESTACIONAMIENTO SEDER GUADALAJARA","20.676075","-103.3660711"
"CENTRO DE SALUD LOMAS DEL GALLO GUADALAJARA","20.676801","-103.274001"
"INSTITUTO CULTURAL CABANAS GUADALAJARA","20.676916","-103.338145"
"COEDIS GUADALAJARA","20.6768883","-103.3680905"
"EDIFICIO JUGUETEROS GUADALAJARA","20.67723056","-103.3417722"
"BIBLIOTECA FERNANDO DEL PASO GUADALAJARA","20.677734","-103.283673"
"PALACIO MUNICIPAL GUADALAJARA","20.677748","-103.347835"
"C.D.C. NO. 11 SANTA MARIA DEL PUEBLITO ZAPOPAN","20.678071","-103.437127"
"CENTRO DE SALUD STA MARIA DEL PUEBLITO ZAPOPAN","20.678601","-103.437001"
"MUSEO DE LAS ARTES POPULARES DE JALISCO GUADALAJARA","20.679628","-103.346176"
"OFICINA REGIONAL AGRARIOS REGION CENTRO GUADALAJARA","20.68045","-103.353892"
"CENTRO DE SALUD BALCONES DE ARRIBA GUADALAJARA","20.680801","-103.299001"
"CENTRO DE SALUD LIBERTAD GUADALAJARA","20.681601","-103.290001"
"OFICIALIA NO. 7 CD. GRANJA ZAPOPAN","20.682838","-103.445152"
"DELEGACION CIUDAD GRANJA ZAPOPAN","20.683123","-103.44487"
"OFICIALIA NO. 16 JARDINES DE LA PATRIA ZAPOPAN","20.683722","-103.418885"
"ESTACION DE MONITOREO  ATMOSFERICO VALLARTA ZAPOPAN","20.6845674","-103.4019408"
"BIBLIOTECA NOVELISTAS ZAPOPAN","20.685411","-103.431639"
"FISCALIA GENERAL DEL ESTADO DE JALISCO GUADALAJARA","20.685924","-103.335853"
"FISCALIA GENERAL DEL ESTADO DE JALISCO GUADALAJARA","20.686478","-103.335592"
"COLONIA JALISCO TONALA","20.687025","-103.263197"
"CENTRO DE SALUD COLONIA JALISCO TONALA","20.687191","-103.26325"
"MUSEO PANTEON DE BELEN GUADALAJARA","20.687434","-103.345592"
"INSTITUTO JALISCIENSE DE CANCEROLOGIA GUADALAJARA","20.687901","-103.343001"
"CENTRO DE SALUD BASILIO VADILLO TONALA","20.688201","-103.266001"
"TANQUE TALPITA GUADALAJARA","20.688851","-103.299386"
"UNIDAD ADMTVA. PRISCILIANO SANCHEZ GUADALAJARA","20.689029","-103.294983"
"BIBLIOTECA MTRA. MA. LUISA RIESTRA VDA. DE NAVARRO GUADALAJARA","20.689104","-103.294986"
"COMISION ESTATAL INDIGENA GUADALAJARA","20.689094","-103.351513"
"PRISCILIANO SANCHEZ (OBLATOS) GUADALAJARA","20.689153","-103.295058"
"COORDINACION DE COMUNICACION SOCIAL GUADALAJARA","20.689322","-103.37951"
"CENTRO DE SALUD EL BETHEL GUADALAJARA","20.690101","-103.283001"
"TANQUE OBLATOS GUADALAJARA","20.690371","-103.298973"
"FRAY PEDRO GUADALAJARA","20.690669","-103.37862"
"JARDIN REGISTRO CIVIL GUADALAJARA","20.69092","-103.347911"
"DISPENSARIO MEDICO Y CLINICA DENTAL DE LA ""UNIDAD MEDICA DR. JESUS DELGADILLO ARAUJO"" GUADALAJARA","20.691128","-103.352052"
"CENTRO DE SALUD ARANDAS GUADALAJARA","20.691801","-103.288001"
"TANQUE MEZQUITAN GUADALAJARA","20.693014","-103.360686"
"CASA MESINA GUADALAJARA","20.693278","-103.391617"
"SDIS GUADALAJARA","20.694317","-103.371325"
"CENTRO DE CONTROL DEL SIMAJ GUADALAJARA","20.695598","-103.370585"
"CENTRO DENTAL INFANTIL DE ESPECIALIDADES GUADALAJARA","20.696101","-103.348001"
"SUBSECRETARIA DE ADMINISTRACION GUADALAJARA","20.696387","-103.348374"
"SUBSECRETARIA DE ADMINISTRACION GUADALAJARA","20.6965607","-103.3483668"
"LIC MIGUEL GOMEZ LOZA GUADALAJARA","20.697865","-103.348259"
"CETRO OFICIAL DE MEDICIONES GUADALAJARA","20.698062","-103.358146"
"SIOP GUADALAJARA","20.698612","-103.348391"
"ESTACION DE MONITOREO  ATMOSFERICO OBLATOS GUADALAJARA","20.69904828","-103.2966768"
"COMEDOR COMUNITARIO ""COL. RIO VERDE OBLATOS"",  GUADALAJARA","20.699805","-103.289553"
"BIBLIOTECA EFRAIN GONZALEZ MORFIN GUADALAJARA","20.699866","-103.323031"
"EDIFICIO MAGISTERIO GUADALAJARA","20.69991667","-103.3491028"
"CENTRO DE SALUD TETLAN RIO VERDE GUADALAJARA","20.700001","-103.290001"
"UNIDAD DE ATENCION A LA VIOLENCIA INTRAFAMILIAR GUADALAJARA GUADALAJARA","20.6999813","-103.310968"
"MODULO DE POLICIA GUADALAJARA ORIENTE GUADALAJARA","20.701187","-103.298152"
"CENTRO DE JUSTICIA DE LA MUJER GUADALAJARA","20.701634","-103.337583"
"ARCHIVO HISTORICO GUADALAJARA","20.701567","-103.347694"
"EDIFICIO DE ARCHIVOS GUADALAJARA","20.701589","-103.347989"
"PATRIMONIO DEL ESTADO GUADALAJARA","20.702175","-103.35455"
"CASA PROVIDENCIA GUADALAJARA","20.703253","-103.377208"
"CENTRO DE SALUD SANTA CECILIA GUADALAJARA","20.704301","-103.291001"
"BIBLIOTECA C. P. GABRIEL COVARRUBIAS IBARRA GUADALAJARA","20.704684","-103.336214"
"SECRETARIA DE MOVILIDAD GUADALAJARA","20.705568","-103.346313"
"DISPENSARIO MEDICO Y CLINICA DENTAL ""LA FEDERACHA"" GUADALAJARA","20.708493","-103.313219"
"CENTRO DE SALUD LA AURORA Y LA ESPERANZA GUADALAJARA","20.710001","-103.307001"
"BIBLIOTECA SEVERO DIAZ GALINDO GUADALAJARA","20.711691","-103.297312"
"C.D.C. NO. 15 SAN JUAN DE OCOTAN ZAPOPAN","20.711719","-103.454087"
"OFICIALIA NO. 11 SAN JUAN DE OCOTAN ZAPOPAN","20.711823","-103.453858"
"CENTRO DE SALUD SAN MIGUEL DE HUENTITAN GUADALAJARA","20.712001","-103.294001"
"CUARTEL DE POLICIA ZONA 3 GUADALAJARA","20.713988","-103.316276"
"CONSEJO ESTATAL DE TRASPLANTES DE ORGANOS Y TEJIDOS ZAPOPAN","20.715776","-103.370426"
"DELEGACION VENTA DEL ASTILLERO ZAPOPAN","20.716911","-103.399977"
"INSTITUTO JALISCIENSE DE ALIVIO AL DOLOR Y CUIDADOS PALIATIVOS ZAPOPAN","20.717201","-103.370001"
"CENTRO DE ATENCION INTEGRAL EN SALUD MENTAL ESTANCIA BREVE ZAPOPAN","20.718133","-103.371001"
"ESTACION DE MONITOREO  ATMOSFERICO ATEMAJAC ZAPOPAN","20.71818028","-103.3554914"
"CENTRO DE SALUD RANCHO NUEVO GUADALAJARA","20.718301","-103.326001"
"BIBLIOTECA TESISTAN ZAPOPAN","20.718737","-103.355918"
"ZAPOPAN ZAPOPAN","20.71879115","-103.3861576"
"DISPENSARIO MEDICO Y CLINICA DENTAL ""COL. RANCHO NUEVO GUADALAJARA","20.719103","-103.325814"
"BIBLIOTECA LIC. MANUEL GOMEZ MORIN GUADALAJARA","20.719082","-103.326093"
"C.D.C. NO. 13 ATEMAJAC ZAPOPAN","20.7198111","-103.3549385"
"OFICIALIA NO. 4 ATEMAJAC DEL VALLE ZAPOPAN","20.719771","-103.355158"
"DELEGACION ATEMAJAC ZAPOPAN","20.720038","-103.355201"
"BIBLIOTECA ATEMAJAC DEL VALLE ZAPOPAN","20.720142","-103.355137"
"DELEGACION LA EXPERIENCIA ZAPOPAN","20.720347","-103.348056"
"MUSEO DE ARTE ZAPOPAN ZAPOPAN","20.72069","-103.38986"
"OFICIALIA NO. 1 UNIDAD BASILICA ZAPOPAN","20.72070501","-103.3912128"
"PRESIDENCIA MUNICPAL DE ZAPOPAN ZAPOPAN","20.721377","-103.389743"
"LIC JORGE  HUMBERTO CHAVIRA  MARTINEZ ZAPOPAN","20.721694","-103.344252"
"CENTRO MUNICIPAL DE LA CULTURA ZAPOPAN","20.721844","-103.394112"
"OFICIALIA NO. 8 EL BATAN ZAPOPAN","20.722059","-103.344342"
"C.D.C. NO. 4 EL BATAN ZAPOPAN","20.722247","-103.344116"
"CENTRO DE SALUD ZAPOPAN NORTE I ZAPOPAN","20.722501","-103.396001"
"INSTITUTO DERMATOLOGICO DE JALISCO DR. JOSE BARBA RUBIO ZAPOPAN","20.724201","-103.353001"
"HOSPITAL GENERAL DE ZAPOPAN (CIVIL) ZAPOPAN","20.724201","-103.396001"
"UNIDAD DE EMERGENCIA CRUZ VERDE NORTE ZAPOPAN","20.7248001","-103.396003"
"HOSPITAL GENERAL DE ZAPOPAN ZAPOPAN","20.724892","-103.396124"
"DISPENSARIO MEDICO Y CLINICA DENTAL DE U.A.P.S. ""EL JAGUEY"" GUADALAJARA","20.725112","-103.328421"
"SUB-DIR. DE BOMBEROS ZAPOPAN","20.7266998","-103.385002"
"OFICIALIA NO. 5 CONSTITUCION ZAPOPAN","20.727317","-103.368033"
"CENTRO DE SALUD MERCADO BOLA ZAPOPAN","20.727601","-103.368001"
"CENTRO DE SALUD LOMAS DEL PARAISO GUADALAJARA","20.727947","-103.324857"
"CENTRO DE SALUD TESISTAN ZAPOPAN","20.728101","-103.388001"
"BIBLIOTECA ARCHIVO MUNICIPAL ZAPOPAN","20.728995","-103.380828"
"ASUNTOS INTERNOS ZAPOPAN","20.7294006","-103.389999"
"PROTECCION CIVIL Y BOMBEROS ZAPOPAN","20.7300271","-103.384126"
"COMISARIA GENERAL DE SEGURIDAD PUBLICA ZAPOPAN","20.730067","-103.384845"
"SUB-DIR. DE PROTECCION CIVIL ZAPOPAN","20.7301998","-103.384002"
"CENTRO DE SALUD BENITO JUAREZ ZAPOPAN","20.730301","-103.339001"
"CENTRO DE SALUD CONSTITUCION ZAPOPAN","20.731201","-103.361001"
"CENTRO DE SALUD SANTA MARGARITA ZAPOPAN","20.733301","-103.423001"
"OFICIALIA NO. 9 Y 17 UNIDAD TUZANIA ZAPOPAN","20.734191","-103.410106"
"OFICIALIA NO. 15 TABACHINES ZAPOPAN","20.734482","-103.361236"
"UNIDAD DE EMERGENCIA CRUZ VERDE FEDERALISMO ZAPOPAN","20.7349438","-103.35062"
"BIBLIOTECA PUBLICA MUNICIPAL ZAPOPAN","20.734862","-103.411688"
"BIBLIOTECA TUZANIA ZAPOPAN","20.73509","-103.41174"
"UNIDAD DE ATENCION A LA VIOLENCIA INTRAFAMILIAR ZAPOPAN ZAPOPAN","20.7359411","-103.3836335"
"BIBLIOTECA FOVISSSTE ZAPOPAN","20.737242","-103.403947"
"SECTOR UNO ZAPOPAN","20.737699","-103.348999"
"C.D.C. NO. 22 PARQUES DEL AUDITORIO ZAPOPAN","20.739405","-103.352932"
"CENTRO CULTURAL TABACHINES ZAPOPAN","20.740367","-103.369656"
"CIEN CORAZONES ZAPOPAN","20.740822","-103.430917"
"CENTRO CULTURAL ALTAGRACIA ZAPOPAN","20.744807","-103.39158"
"CENTRO DE ATENCION PRIMARIA EN ADICCIONES NUEVA VIDA ZAPOPAN I ZAPOPAN","20.748301","-103.373001"
"C.D.C. NO. 19 JARDINES DE NUEVO MEXICO ZAPOPAN","20.762982","-103.44387"
"CENTRO CULTURAL JARDINES DEL NUEVO MEXICO ZAPOPAN","20.764871","-103.443902"
"CENTRO DE SALUD HOGARES DE NUEVO MEXICO ZAPOPAN","20.767001","-103.421001"
"CENTRO DE SALUD NUEVO MEXICO ZAPOPAN","20.767601","-103.447001"
"BIBLIOTECA NUEVO MEXICO ZAPOPAN","20.767909","-103.446997"
"CENTRO DE SALUD ZAPOPAN NORTE II ZAPOPAN","20.772001","-103.450001"
"C.D.C. NO. 21 COPALITA ZAPOPAN","20.7959555","-103.4740802"
"C.D.C. NO. 8 SANTA MONICA DE LOS CHORRITOS ZAPOPAN","20.7969253","-103.4960864"
"DELEGACION TESISTAN ZAPOPAN","20.798341","-103.477988"
"OFICIALIA NO. 6 TESISTAN ZAPOPAN","20.798605","-103.477853"
"UNIDAD DE EMERGENCIA CRUZ VERDE SANTA LUCIA ZAPOPAN","20.79909","-103.495902"
"SECTOR CUATRO ZAPOPAN","20.801082","-103.478128"
"C.D.C. NO. 6 SANTA LUCIA ZAPOPAN","20.802328","-103.491626"
"CENTRO DE SALUD LA MAGDALENA ZAPOPAN","20.808001","-103.462001"
"5 SURESTE MAZAMITLA","19.917062","-103.020163"
"CASA DE MIGRANTE / CENTRO COMUNITARIO DE APRENDIZAJE MAZAMITLA","19.914504","-103.020585"
"SALON DE USOS MULTIPLES CONCEPCION DE BUENOS AIRES","19.979198","-103.260183"
"DIF AMACUECA AMACUECA","20.011122","-103.600624"
"DELEGACION EL PLAN (EL CERRITO) ACATLAN DE JUAREZ","20.41754","-103.60529"
"OFICINA DE TELEGRAFOS ACATLAN DE JUAREZ","20.419568","-103.590467"
"CASA EJIDAL IXTLAHUACAN DE LOS MEMBRILLOS","20.446206","-103.201444"
"DELEGACION LA CAPILLA IXTLAHUACAN DE LOS MEMBRILLOS","20.446253","-103.2014"
"DELEGACION SAN ISIDRO TALA","20.522903","-103.611785"
"DELEGACION ZAPOTLANEJO","20.526239","-103.084348"
"DELEGACION SANTA ANITA SAN PEDRO TLAQUEPAQUE","20.549676","-103.44153"
"OFICINA DE REGISTRO CIVIL NO. 7  SAN PEDRO TLAQUEPAQUE","20.578013","-103.370395"
"AGENCIA LA LADRILLERA SAN PEDRO TLAQUEPAQUE","20.58141","-103.330954"
"OFICINA DE REGISTRO CIVIL NO. 12 (LA LADRILLERA) SAN PEDRO TLAQUEPAQUE","20.58141","-103.330954"
"KIOSCO ELECTRONICO CENTRO SUR SAN PEDRO TLAQUEPAQUE","20.603314","-103.401795"
"SECTOR DE ZONA 3 SAN PEDRO TLAQUEPAQUE","20.606264","-103.352942"
"OFICINA DE REGISTRO CIVIL NO. 13 (MIRAVALLE) SAN PEDRO TLAQUEPAQUE","20.606264","-103.352942"
"DELEGACION TATEPOSCO SAN PEDRO TLAQUEPAQUE","20.607038","-103.25923"
"OFICINA DE REGISTRO CIVIL NO. 10 SAN PEDRO TLAQUEPAQUE","20.607048","-103.259217"
"KIOSCO ELECTRONICO MIRAVALLE GUADALAJARA","20.610785","-103.341332"
"ESTACION DE MONITOREO  ATMOSFERICO LOMA DORADA TONALA","20.629247","-103.264026"
"CENTRO CULTURAL REGIONAL LAS AGUILAS ZAPOPAN","20.631184","-103.416554"
"UNIDAD ADMINISTRATIVA LAS AGUILAS ZAPOPAN","20.631184","-103.416554"
"PRESIDENCIA SAN PEDRO TLAQUEPAQUE","20.639341","-103.31075"
"ATENCION CIUDADANA SAN PEDRO TLAQUEPAQUE","20.639341","-103.31075"
"DESARROLLO SOCIAL SAN PEDRO TLAQUEPAQUE","20.639877","-103.31606"
"ATENCION TURISTICA SAN PEDRO TLAQUEPAQUE","20.639871","-103.316091"
"VEHICULOS SAN PEDRO TLAQUEPAQUE","20.64102","-103.301072"
"DIRECCION DE MANTENIMIENTO Y CONSERVACION SAN PEDRO TLAQUEPAQUE","20.64102","-103.301072"
"KIOSCO ELECTRONICO PILA SECA SAN PEDRO TLAQUEPAQUE","20.641706","-103.316617"
"KIOSCO ELECTRONICO RIO NILO SAN PEDRO TLAQUEPAQUE","20.644819","-103.311705"
"BIBLIOTECA PUBLICA MUNICIPAL ZAPOPAN","20.649523","-103.453337"
"OFICIALIA NO. 20 EL COLLI ZAPOPAN","20.649521","-103.453397"
"C.D.C. NO. 1 PARAISOS DEL COLLI ZAPOPAN","20.649607","-103.45337"
"BIBLIOTECA PARAISOS DEL COLLI ZAPOPAN","20.649607","-103.45337"
"OFICINAS CENTRALES PARQUES SOLIDARIDAD Y MONTENEGRO GUADALAJARA","20.667097","-103.269472"
"DELEGACION EL REFUGIO TALA","20.6715656","-103.7382946"
"EDIFICIO MADERO GUADALAJARA","20.673733","-103.345044"
"DISPENSARIO MEDICO Y CLINICA DENTAL DE LA ''U.A.P.S.'' IGNACIO ALLENDE GUADALAJARA","20.673929","-103.285924"
"CUARTEL DE POLICIA ZONA 6 GUADALAJARA","20.673929","-103.285924"
"EDIFICIO PEDRO MORENO GUADALAJARA","20.67577778","-103.3465083"
"PALACIO DE GOBIERNO GUADALAJARA","20.6762729","-103.3463974"
"PALACIO DE GOBIERNO GUADALAJARA","20.676289","-103.346308"
"EDIFICIO EJECUCION FISCAL GUADALAJARA","20.69863611","-103.3482083"
"DISPENSARIO MEDICO Y CLINICA DENTAL ""COL. SANTA CECILIA"", GUADALAJARA","20.706772","-103.28955"
"SANTA CECILIA GUADALAJARA","20.706811","-103.289611"
"BIBLIOTECA SANTA CECILIA GUADALAJARA","20.707007","-103.289547"
"DELEGACION SAN JUAN OCOTAN ZAPOPAN","20.711869","-103.454054"
"BIBLIOTECA SAN JUAN DE OCOTAN ZAPOPAN","20.711869","-103.454054"
"COMEDOR COMUNITARIO ""COL. DIVISION DEL NORTE"", GUADALAJARA","20.720866","-103.33813"
"DISPENSARIO MEDICO Y CLINICA DENTAL ""SANTA ELENA"". GUADALAJARA","20.720866","-103.33813"
"UNIDAD ADMINISTRATIVA BASILICA ZAPOPAN","20.721079","-103.391112"
"BIBLIOTECA EL BATAN ZAPOPAN","20.722178","-103.344294"
"DELEGACION EL BATAN ZAPOPAN","20.722178","-103.344294"
"COMEDOR COMUNITARIO LOMAS DEL PARAISO GUADALAJARA","20.727167","-103.328588"
"DISPENSARIO MEDICO Y CLINICA DENTAL COL. LOMAS DEL PARAISO 5A SECCION GUADALAJARA","20.727167","-103.328588"
"DELEGACION SANTA MARIA TEQUEPEXPAN SAN PEDRO TLAQUEPAQUE","20.597229","-103.393177"
"OFICINA DE REGISTRO CIVIL NO. 5 (SANTA MARIA TEQUEPEXPAN) SAN PEDRO TLAQUEPAQUE","20.597229","-103.393177"
"DELEGACION LAS JUNTAS SAN PEDRO TLAQUEPAQUE","20.609724","-103.336652"
"OFICINA DE REGISTRO CIVIL NO. 3 (LAS JUNTAS) SAN PEDRO TLAQUEPAQUE","20.609685","-103.33666"
"DELEGACION SAN PEDRITO SAN PEDRO TLAQUEPAQUE","20.614864","-103.288153"
"OFICINA DE REGISTRO CIVIL NO. 11 (SAN PEDRITO) SAN PEDRO TLAQUEPAQUE","20.614864","-103.288153"
"AGENCIA LOMA BONITA SAN PEDRO TLAQUEPAQUE","20.627828","-103.401473"
"OFICINA DE REGISTRO CIVIL NO. 14 SAN PEDRO TLAQUEPAQUE","20.627828","-103.401473"
"BIBLIOTECA 3 LOPEZ COTILLA SAN PEDRO TLAQUEPAQUE","20.573861","-103.358857"
"DELEGACION MANUEL LOPEZ COTILLA SAN PEDRO TLAQUEPAQUE","20.573861","-103.358857"
"OFICINA DE REGISTRO CIVIL NO. 8  SAN PEDRO TLAQUEPAQUE","20.573861","-103.358857"
"TESORERIA MUNICIPAL ACATLAN DE JUAREZ ACATLAN DE JUAREZ","20.422118","-103.591474"
"COMUNICACION SOCIAL ACATLAN DE JUAREZ","20.422118","-103.591474"
"PRESIDENCIA MUNICIPAL DE ACATLAN DE JUAREZ ACATLAN DE JUAREZ","20.422118","-103.591474"
"JEFE DEL DEPTO. DE EDUCACION AMBIENTAL SAN PEDRO TLAQUEPAQUE","20.641498","-103.316522"
"JEFE DEL DPTO. DE DICTAMINACION Y PROTECCION AMBIENTAL SAN PEDRO TLAQUEPAQUE","20.641498","-103.316522"
"DIRECTOR DE PARQUESY JARDINES SAN PEDRO TLAQUEPAQUE","20.641498","-103.316522"
"DIRECTOR GENERAL DE MEDIO AMBIENTE SAN PEDRO TLAQUEPAQUE","20.641498","-103.316522"
"ESCUADRON MONTADO ZAPOPAN","20.7296009","-103.382003"
"ESCUADRON MOTORIZADO ZAPOPAN","20.7296009","-103.382003"
"ESCUADRON CICLOPOLICIA ZAPOPAN","20.7296009","-103.382003"
"ESCUADRON CANINO ZAPOPAN","20.7296009","-103.382003"
"NUEVO MEXICO ZAPOPAN","20.640301","-103.468863"
"C.D.C. NO. 20 ARENALES TAPATIOS ZAPOPAN","20.633966","-103.4740802"
"PLAZA PUBLICA PRINCIPAL","20.780.520","-102.910.069"
"PLAZA PUBLICA PRINCIPAL","20.422.356","-103.591.470"
"PLAZA PUBLICA PRINCIPAL","20.701.196","-103.976.477"
"PLAZA PUBLICA PRINCIPAL","20.011424°","-103.600529°"
"PLAZA PUBLICA PRINCIPAL","20.831.485","-103.728.201"
"PLAZA PUBLICA PRINCIPAL","20.547.628","-104.046.658"
"PLAZA PUBLICA PRINCIPAL","20.705.675","-102.344.849"
"PLAZA PUBLICA PRINCIPAL","20.140.848","-103.728.541"
"PLAZA PUBLICA PRINCIPAL","20.274.968","-104.238.340"
"PLAZA PUBLICA PRINCIPAL","20.415.080","-104.493.291"
"PLAZA PUBLICA PRINCIPAL","20.551.110","-102.507.929"
"PLAZA PUBLICA PRINCIPAL","20.008.525","-103.517.327"
"PLAZA PUBLICA PRINCIPAL","19.771.614","-104.366.676"
"PLAZA PUBLICA PRINCIPAL","20.528.120","-102.333.181"
"PLAZA PUBLICA PRINCIPAL","20.130.286","-104.346.114"
"PLAZA PUBLICA PRINCIPAL","21.830.254","-103.781.874"
"PLAZA PUBLICA PRINCIPAL","20.319.863","-105.327.398"
"PLAZA PUBLICA PRINCIPAL","21.149.552","-102.688.868"
"PLAZA PUBLICA PRINCIPAL","19.603.566","-104.436.190"
"PLAZA PUBLICA PRINCIPAL","20.287.852","-103.193.251"
"PLAZA PUBLICA PRINCIPAL","21.779.632","-103.781.036"
"PLAZA PUBLICA PRINCIPAL","20.089.658","-103.861.946"
"PLAZA PUBLICA PRINCIPAL","19.238.131","-104.557.253"
"PLAZA PUBLICA PRINCIPAL","20.365.168","-103.822.234"
"PLAZA PUBLICA PRINCIPAL","22.114.507","-103.267.571"
"PLAZA PUBLICA PRINCIPAL","19.978.816","-103.260.856"
"PLAZA PUBLICA PRINCIPAL","19.452.133","-104.358.245"
"PLAZA PUBLICA PRINCIPAL","20.202.368","-104.406.154"
"PLAZA PUBLICA PRINCIPAL","20.928.677","-103.023.213"
"PLAZA PUBLICA PRINCIPAL","20.446.612","-102.135.052"
"PLAZA PUBLICA PRINCIPAL","19.906.434","-104.161.916"
"PLAZA PUBLICA PRINCIPAL","20.776.703","-103.695.001"
"PLAZA PUBLICA PRINCIPAL","19.806.133","-104.215.681"
"PLAZA PUBLICA PRINCIPAL","19.826.408","-104.158.029"
"PLAZA PUBLICA PRINCIPAL","20.518.873","-103.177.730"
"PLAZA PUBLICA PRINCIPAL","21.526.618","-102.239.945"
"PLAZA PUBLICA PRINCIPAL","20.764.094","-104.080.856"
"PLAZA PUBLICA PRINCIPAL","19.795.656","-103.477.999"
"PLAZA PUBLICA PRINCIPAL","20.575.347","-104.381.830"
"PLAZA PUBLICA PRINCIPAL","20.677.057","-103.347.777"
"PLAZA PUBLICA PRINCIPAL","21.058.890","-104.051.593"
"PLAZA PUBLICA PRINCIPAL","22.359.123","-103.210.378"
"PLAZA PUBLICA PRINCIPAL","22.627.302","-103.897.046"
"PLAZA PUBLICA PRINCIPAL","20.348.984","-103.192.703"
"PLAZA PUBLICA PRINCIPAL","20.863.598","-103.239.589"
"PLAZA PUBLICA PRINCIPAL","21.165.579","-102.467.520"
"PLAZA PUBLICA PRINCIPAL","20.290.933","-102.710.432"
"PLAZA PUBLICA PRINCIPAL","20.607.952","-102.224.785"
"PLAZA PUBLICA PRINCIPAL","19.371.169","-103.019.508"
"PLAZA PUBLICA PRINCIPAL","20.286.144","-103.430.031"
"PLAZA PUBLICA PRINCIPAL","20.505.952","-103.171.503"
"PLAZA PUBLICA PRINCIPAL","20.083.954","-104.096.508"
"PLAZA PUBLICA PRINCIPAL","20.293.148","-102.540.486"
"PLAZA PUBLICA PRINCIPAL","19.482.669","-104.638.859"
"PLAZA PUBLICA PRINCIPAL","20.005.313","-103.155.671"
"PLAZA PUBLICA PRINCIPAL","21.355.090","-101.930.533"
"PLAZA PUBLICA PRINCIPAL","20.908.603","-103.981.625"
"PLAZA PUBLICA PRINCIPAL","20.523.513","-104.788.269"
"PLAZA PUBLICA PRINCIPAL","19.915.982","-103.020.271"
"PLAZA PUBLICA PRINCIPAL","21.264.484","-102.776.763"
"PLAZA PUBLICA PRINCIPAL","22.388.090","-103.728.449"
"PLAZA PUBLICA PRINCIPAL","20.438.941","-104.409.087"
"PLAZA PUBLICA PRINCIPAL","20.346.758","-102.773.849"
"PLAZA PUBLICA PRINCIPAL","21.866.993","-101.590.710"
"PLAZA PUBLICA PRINCIPAL","19.253.779","-103.379.602"
"PLAZA PUBLICA PRINCIPAL","20.383.802","-102.928.152"
"PLAZA PUBLICA PRINCIPAL","20.608.487","-105.235.588"
"PLAZA PUBLICA PRINCIPAL","19.927.210","-102.877.441"
"PLAZA PUBLICA PRINCIPAL","21.043.739","-103.428.695"
"PLAZA PUBLICA PRINCIPAL","20.991.475","-101.992.116"
"PLAZA PUBLICA PRINCIPAL","19.748.233","-103.766.469"
"PLAZA PUBLICA PRINCIPAL","20.741.880","-102.536.117"
"PLAZA PUBLICA PRINCIPAL","21.245.252","-102.334.695"
"PLAZA PUBLICA PRINCIPAL","20.799.080","-104.003.603"
"PLAZA PUBLICA PRINCIPAL","21.011.190","-102.180.549"
"PLAZA PUBLICA PRINCIPAL","20.790.910","-104.195.011"
"PLAZA PUBLICA PRINCIPAL","21.684.510","-103.812.102"
"PLAZA PUBLICA PRINCIPAL","20.436.071","-103.928.631"
"PLAZA PUBLICA PRINCIPAL","21.030.814","-102.401.816"
"PLAZA PUBLICA PRINCIPAL","20.761.329","-104.852.698"
"PLAZA PUBLICA PRINCIPAL","20.761285","-104.852718"
"PLAZA PUBLICA PRINCIPAL","22.172597°","-103.224918°"
"PLAZA PUBLICA PRINCIPAL","19.586875","-102.909492"
"PLAZA PUBLICA PRINCIPAL","19.884244","-103.600986"
"PLAZA PUBLICA PRINCIPAL","20.649325","-103.702108"
"PLAZA PUBLICA PRINCIPAL","20.380693","-104.822455"
"PLAZA PUBLICA PRINCIPAL","19.675127","-103.254035"
"PLAZA PUBLICA PRINCIPAL","19.944877","-103.757619"
"PLAZA PUBLICA PRINCIPAL","19.470915","-103.306983"
"PLAZA PUBLICA PRINCIPAL","20.074891","-103.550601"
"PLAZA PUBLICA PRINCIPAL","20.218.562","-104.164.740"
"PLAZA PUBLICA PRINCIPAL","20.218708","-104.164952"
"PLAZA PUBLICA PRINCIPAL","21.436966","-102.576178"
"PLAZA PUBLICA PRINCIPAL","20.091657","-103.377422"
"PLAZA PUBLICA PRINCIPAL","20.815278","-102.758863"
"PLAZA PUBLICA PRINCIPAL","20.885087","-103.839012"
"PLAZA PUBLICA PRINCIPAL","20.683698","-103.847245"
"PLAZA PUBLICA PRINCIPAL","20.159152","-103.044562"
"PLAZA PUBLICA PRINCIPAL","20.639.652","-103.311.913"
"PLAZA PUBLICA PRINCIPAL","19.602.234","-103.914.945"
"PLAZA PUBLICA PRINCIPAL","19.942.950","-105.246.594"
"PLAZA PUBLICA PRINCIPAL","20.624.176","-103.242.169"
"PLAZA PUBLICA PRINCIPAL","19.786.060","-103.971.720"
"PLAZA PUBLICA PRINCIPAL","19.409.690","-103.550.573"
"PLAZA PUBLICA PRINCIPAL","21.927.417","-103.443.938"
"PLAZA PUBLICA PRINCIPAL","20.540.774","-102.793.319"
"PLAZA PUBLICA PRINCIPAL","19.698.497","-103.982.985"
"PLAZA PUBLICA PRINCIPAL","20.155.344","-103.184.865"
"PLAZA PUBLICA PRINCIPAL","19.556.415","-103.375.912"
"PLAZA PUBLICA PRINCIPAL","21.128.832","-102.006.262"
"PLAZA PUBLICA PRINCIPAL","19.956.557","-104.267.893"
"PLAZA PUBLICA PRINCIPAL","21.011619°","-102.618092°"
"PLAZA PUBLICA PRINCIPAL","19.932.342","-102.943.237"
"PLAZA PUBLICA PRINCIPAL","20.417.638","-103.663.814"
"PLAZA PUBLICA PRINCIPAL","21.984.085","-103.594.380"
"PLAZA PUBLICA PRINCIPAL","21.673.770","-102.590.071"
"PLAZA PUBLICA PRINCIPAL","19.718.373","-104.601.189"
"PLAZA PUBLICA PRINCIPAL","21.178.405","-102.885.862"
"PLAZA PUBLICA PRINCIPAL","20.230.057","-103.571.641"
"PLAZA PUBLICA PRINCIPAL","20.721.255","-103.391.092"
"PLAZA PUBLICA PRINCIPAL","19.626.254","-103.416.944"
"PLAZA PUBLICA PRINCIPAL","19.547.650","-103.813.432"
"PLAZA PUBLICA PRINCIPAL","20.467153","-102.92522"
"PLAZA PUBLICA PRINCIPAL","19.704.920","-103.462.425"
" ARTE, ARQUITECTURA Y DISEÑOSITIO DEL CENTRO UNIVERSITARIO DE ARTE, ARQUITECTURA Y DISEÑO","20.740581","-103.312168"
" ARTE, ARQUITECTURA Y DISEÑOSITIO DEL CENTRO UNIVERSITARIO DE ARTE, ARQUITECTURA Y DISEÑO","20.740581","-103.312168"
" ARTE, ARQUITECTURA Y DISEÑOSITIO DEL CENTRO UNIVERSITARIO DE ARTE, ARQUITECTURA Y DISEÑO","20.740581","-103.312168"
" ARTE, ARQUITECTURA Y DISEÑOSITIO DEL CENTRO UNIVERSITARIO DE ARTE, ARQUITECTURA Y DISEÑO","20.740581","-103.312168"
" ARTE, ARQUITECTURA Y DISEÑOSITIO DEL CENTRO UNIVERSITARIO DE ARTE, ARQUITECTURA Y DISEÑO","20.740581","-103.312168"
" ARTE, ARQUITECTURA Y DISEÑOSITIO DEL CENTRO UNIVERSITARIO DE ARTE, ARQUITECTURA Y DISEÑO","20.740581","-103.312168"
" ARTE, ARQUITECTURA Y DISEÑOSITIO DEL CENTRO UNIVERSITARIO DE ARTE, ARQUITECTURA Y DISEÑO","20.740581","-103.312168"
" ARTE, ARQUITECTURA Y DISEÑOSITIO DEL CENTRO UNIVERSITARIO DE ARTE, ARQUITECTURA Y DISEÑO","20.740581","-103.312168"
" ARTE, ARQUITECTURA Y DISEÑOSITIO DEL CENTRO UNIVERSITARIO DE ARTE, ARQUITECTURA Y DISEÑO","20.740581","-103.312168"
" ARTE, ARQUITECTURA Y DISEÑOSITIO DEL CENTRO UNIVERSITARIO DE ARTE, ARQUITECTURA Y DISEÑO","20.740581","-103.312168"
" CIENCIAS BIOLÓGICAS Y AGROPECUARIAS SITIO DEL CENTRO UNIVERSITARIO DE CIENCIAS BIOLÓGICAS Y AGROPECUARIAS","20.745931","-103.512926"
" CIENCIAS BIOLÓGICAS Y AGROPECUARIAS SITIO DEL CENTRO UNIVERSITARIO DE CIENCIAS BIOLÓGICAS Y AGROPECUARIAS","20.745931","-103.512926"
" CIENCIAS BIOLÓGICAS Y AGROPECUARIAS SITIO DEL CENTRO UNIVERSITARIO DE CIENCIAS BIOLÓGICAS Y AGROPECUARIAS","20.745931","-103.512926"
" CIENCIAS BIOLÓGICAS Y AGROPECUARIAS SITIO DEL CENTRO UNIVERSITARIO DE CIENCIAS BIOLÓGICAS Y AGROPECUARIAS","20.745931","-103.512926"
" CIENCIAS BIOLÓGICAS Y AGROPECUARIAS SITIO DEL CENTRO UNIVERSITARIO DE CIENCIAS BIOLÓGICAS Y AGROPECUARIAS","20.745931","-103.512926"
" CIENCIAS BIOLÓGICAS Y AGROPECUARIAS SITIO DEL CENTRO UNIVERSITARIO DE CIENCIAS BIOLÓGICAS Y AGROPECUARIAS","20.745931","-103.512926"
" CIENCIAS BIOLÓGICAS Y AGROPECUARIAS SITIO DEL CENTRO UNIVERSITARIO DE CIENCIAS BIOLÓGICAS Y AGROPECUARIAS","20.745931","-103.512926"
" CIENCIAS BIOLÓGICAS Y AGROPECUARIAS SITIO DEL CENTRO UNIVERSITARIO DE CIENCIAS BIOLÓGICAS Y AGROPECUARIAS","20.745931","-103.512926"
" CIENCIAS BIOLÓGICAS Y AGROPECUARIAS SITIO DEL CENTRO UNIVERSITARIO DE CIENCIAS BIOLÓGICAS Y AGROPECUARIAS","20.745931","-103.512926"
" CIENCIAS BIOLÓGICAS Y AGROPECUARIAS SITIO DEL CENTRO UNIVERSITARIO DE CIENCIAS BIOLÓGICAS Y AGROPECUARIAS","20.745931","-103.512926"
" CIENCIAS ECONÓMICO ADMINISTRATIVAS SITIO DEL CENTRO UNIVERSITARIO DE CIENCIAS ECONÓMICO","20.741042","-103.380842"
" CIENCIAS ECONÓMICO ADMINISTRATIVAS SITIO DEL CENTRO UNIVERSITARIO DE CIENCIAS ECONÓMICO","20.741042","-103.380842"
" CIENCIAS ECONÓMICO ADMINISTRATIVAS SITIO DEL CENTRO UNIVERSITARIO DE CIENCIAS ECONÓMICO","20.741042","-103.380842"
" CIENCIAS ECONÓMICO ADMINISTRATIVAS SITIO DEL CENTRO UNIVERSITARIO DE CIENCIAS ECONÓMICO","20.741042","-103.380842"
" CIENCIAS ECONÓMICO ADMINISTRATIVAS SITIO DEL CENTRO UNIVERSITARIO DE CIENCIAS ECONÓMICO","20.741042","-103.380842"
" CIENCIAS ECONÓMICO ADMINISTRATIVAS SITIO DEL CENTRO UNIVERSITARIO DE CIENCIAS ECONÓMICO","20.741042","-103.380842"
" CIENCIAS ECONÓMICO ADMINISTRATIVAS SITIO DEL CENTRO UNIVERSITARIO DE CIENCIAS ECONÓMICO","20.741042","-103.380842"
" CIENCIAS ECONÓMICO ADMINISTRATIVAS SITIO DEL CENTRO UNIVERSITARIO DE CIENCIAS ECONÓMICO","20.741042","-103.380842"
" CIENCIAS ECONÓMICO ADMINISTRATIVAS SITIO DEL CENTRO UNIVERSITARIO DE CIENCIAS ECONÓMICO","20.741042","-103.380842"
" CIENCIAS ECONÓMICO ADMINISTRATIVAS SITIO DEL CENTRO UNIVERSITARIO DE CIENCIAS ECONÓMICO","20.741042","-103.380842"
" CIENCIAS EXACTAS E INGENIERÍAS SITIO DEL CENTRO UNIVERSITARIO DE CIENCIAS EXACTAS E INGENIERÍAS","20.656963","-103.325104"
" CIENCIAS EXACTAS E INGENIERÍAS SITIO DEL CENTRO UNIVERSITARIO DE CIENCIAS EXACTAS E INGENIERÍAS","20.656963","-103.325104"
" CIENCIAS EXACTAS E INGENIERÍAS SITIO DEL CENTRO UNIVERSITARIO DE CIENCIAS EXACTAS E INGENIERÍAS","20.656963","-103.325104"
" CIENCIAS EXACTAS E INGENIERÍAS SITIO DEL CENTRO UNIVERSITARIO DE CIENCIAS EXACTAS E INGENIERÍAS","20.656963","-103.325104"
" CIENCIAS EXACTAS E INGENIERÍAS SITIO DEL CENTRO UNIVERSITARIO DE CIENCIAS EXACTAS E INGENIERÍAS","20.656963","-103.325104"
" CIENCIAS EXACTAS E INGENIERÍAS SITIO DEL CENTRO UNIVERSITARIO DE CIENCIAS EXACTAS E INGENIERÍAS","20.656963","-103.325104"
" CIENCIAS EXACTAS E INGENIERÍAS SITIO DEL CENTRO UNIVERSITARIO DE CIENCIAS EXACTAS E INGENIERÍAS","20.656963","-103.325104"
" CIENCIAS EXACTAS E INGENIERÍAS SITIO DEL CENTRO UNIVERSITARIO DE CIENCIAS EXACTAS E INGENIERÍAS","20.656963","-103.325104"
" CIENCIAS EXACTAS E INGENIERÍAS SITIO DEL CENTRO UNIVERSITARIO DE CIENCIAS EXACTAS E INGENIERÍAS","20.656963","-103.325104"
" CIENCIAS EXACTAS E INGENIERÍAS SITIO DEL CENTRO UNIVERSITARIO DE CIENCIAS EXACTAS E INGENIERÍAS","20.656963","-103.325104"
" CIENCIAS DE LA SALUD SITIO DEL CENTRO UNIVERSITARIO DE CIENCIAS DE LA SALUD","20.686564","-103.332176"
" CIENCIAS DE LA SALUD SITIO DEL CENTRO UNIVERSITARIO DE CIENCIAS DE LA SALUD","20.686564","-103.332176"
" CIENCIAS DE LA SALUD SITIO DEL CENTRO UNIVERSITARIO DE CIENCIAS DE LA SALUD","20.686564","-103.332176"
" CIENCIAS DE LA SALUD SITIO DEL CENTRO UNIVERSITARIO DE CIENCIAS DE LA SALUD","20.686564","-103.332176"
" CIENCIAS DE LA SALUD SITIO DEL CENTRO UNIVERSITARIO DE CIENCIAS DE LA SALUD","20.686564","-103.332176"
" CIENCIAS SOCIALES Y HUMANIDADES SITIO DEL CENTRO UNIVERSITARIO DE CIENCIAS SOCIALES Y HUMANIDADES","20.694217","-103.349706"
" CIENCIAS SOCIALES Y HUMANIDADES SITIO DEL CENTRO UNIVERSITARIO DE CIENCIAS SOCIALES Y HUMANIDADES","20.694217","-103.349706"
" CIENCIAS SOCIALES Y HUMANIDADES SITIO DEL CENTRO UNIVERSITARIO DE CIENCIAS SOCIALES Y HUMANIDADES","20.694217","-103.349706"
" CIENCIAS SOCIALES Y HUMANIDADES SITIO DEL CENTRO UNIVERSITARIO DE CIENCIAS SOCIALES Y HUMANIDADES","20.694217","-103.349706"
" CIENCIAS SOCIALES Y HUMANIDADES SITIO DEL CENTRO UNIVERSITARIO DE CIENCIAS SOCIALES Y HUMANIDADES","20.694217","-103.349706"
"CENTRO UNIVERSITARIO DE LOS ALTOS","20.845894°","-102.791101°"
"CENTRO UNIVERSITARIO DE LOS ALTOS","20.845894°","-102.791101°"
"CENTRO UNIVERSITARIO DE LOS ALTOS","20.845894°","-102.791101°"
"CENTRO UNIVERSITARIO DE LOS ALTOS","20.845894°","-102.791101°"
"CENTRO UNIVERSITARIO DE LOS ALTOS","20.845894°","-102.791101°"
"CENTRO UNIVERSITARIO DE LA CIENEGA","20.370907","-102.768802"
"CENTRO UNIVERSITARIO DE LA CIENEGA","20.370907","-102.768802"
"CENTRO UNIVERSITARIO DE LA CIENEGA","20.370907","-102.768802"
"CENTRO UNIVERSITARIO DE LA CIENEGA","20.370907","-102.768802"
"CENTRO UNIVERSITARIO DE LA CIENEGA","20.370907","-102.768802"
"CENTRO UNIVERSITARIO DE LA COSTA","20.704933","-105.221837"
"CENTRO UNIVERSITARIO DE LA COSTA","20.704933","-105.221837"
"CENTRO UNIVERSITARIO DE LA COSTA","20.704933","-105.221837"
"CENTRO UNIVERSITARIO DE LA COSTA","20.704933","-105.221837"
"CENTRO UNIVERSITARIO DE LA COSTA","20.704933","-105.221837"
"CENTRO UNIVERSITARIO DE LA COSTA SUR","19.774536","-104.358512"
"CENTRO UNIVERSITARIO DE LA COSTA SUR","19.774536","-104.358512"
"CENTRO UNIVERSITARIO DE LA COSTA SUR","19.774536","-104.358512"
"CENTRO UNIVERSITARIO DE LA COSTA SUR","19.774536","-104.358512"
"CENTRO UNIVERSITARIO DE LA COSTA SUR","19.774536","-104.358512"
"CENTRO UNIVERSITARIO DE LAGOS","21.357445","-101.951849"
"CENTRO UNIVERSITARIO DE LAGOS","21.357445","-101.951849"
"CENTRO UNIVERSITARIO DE LAGOS","21.357445","-101.951849"
"CENTRO UNIVERSITARIO DE LAGOS","21.357445","-101.951849"
"CENTRO UNIVERSITARIO DE LAGOS","21.357445","-101.951849"
"CENTRO UNIVERSITARIO DEL NORTE","22.138819","-103.243993"
"CENTRO UNIVERSITARIO DEL NORTE","22.138819","-103.243993"
"CENTRO UNIVERSITARIO DEL NORTE","22.138819","-103.243993"
"CENTRO UNIVERSITARIO DEL NORTE","22.138819","-103.243993"
"CENTRO UNIVERSITARIO DEL NORTE","22.138819","-103.243993"
"CENTRO UNIVERSITARIO DEL SUR","19.725572","-103.461395"
"CENTRO UNIVERSITARIO DEL SUR","19.725572","-103.461395"
"CENTRO UNIVERSITARIO DEL SUR","19.725572","-103.461395"
"CENTRO UNIVERSITARIO DEL SUR","19.725572","-103.461395"
"CENTRO UNIVERSITARIO DEL SUR","19.725572","-103.461395"
"CENTRO UNIVERSITARIO DE TONALA","20.566707","-103.228643"
"CENTRO UNIVERSITARIO DE TONALA","20.566707","-103.228643"
"CENTRO UNIVERSITARIO DE TONALA","20.566707","-103.228643"
"CENTRO UNIVERSITARIO DE TONALA","20.566707","-103.228643"
"CENTRO UNIVERSITARIO DE TONALA","20.566707","-103.228643"
"CENTRO UNIVERSITARIO DE VALLES","20.537634","-103.967178"
"CENTRO UNIVERSITARIO DE VALLES","20.537634","-103.967178"
"CENTRO UNIVERSITARIO DE VALLES","20.537634","-103.967178"
"CENTRO UNIVERSITARIO DE VALLES","20.537634","-103.967178"
"CENTRO UNIVERSITARIO DE VALLES","20.537634","-103.967178"
"UNIVERSIDAD TECNOLOGICA DE JALISCO","20.616951","-103.355748"
"UNIVERSIDAD TECNOLOGICA DE JALISCO","20.616951","-103.355748"
"UNIVERSIDAD TECNOLOGICA DE JALISCO","20.616951","-103.355748"
"UNIVERSIDAD TECNOLOGICA DE JALISCO","20.616951","-103.355748"
"UNIVERSIDAD TECNOLOGICA DE JALISCO","20.616951","-103.355748"
"INSTITUTO TECNOLÓGICO SUPERIOR DE ARANDAS ","20.691069","-102.360565"
"INSTITUTO TECNOLÓGICO SUPERIOR DE ARANDAS ","20.691069","-102.360565"
"INSTITUTO TECNOLÓGICO SUPERIOR DE ARANDAS ","20.691069","-102.360565"
"INSTITUTO TECNOLÓGICO SUPERIOR DE ARANDAS ","20.691069","-102.360565"
"INSTITUTO TECNOLÓGICO SUPERIOR DE ARANDAS ","20.691069","-102.360565"
"INSTITUTO TECNOLÓGICO SUPERIOR DE CHAPALA","20.303338","-103.222027"
"INSTITUTO TECNOLÓGICO SUPERIOR DE CHAPALA","20.303338","-103.222027"
"INSTITUTO TECNOLÓGICO SUPERIOR DE CHAPALA","20.303338","-103.222027"
"INSTITUTO TECNOLÓGICO SUPERIOR DE CHAPALA","20.303338","-103.222027"
"INSTITUTO TECNOLÓGICO SUPERIOR DE CHAPALA","20.303338","-103.222027"
"INSTITUTO TECNOLÓGICO SUPERIOR DE COCULA","20.37325","-103.808251"
"INSTITUTO TECNOLÓGICO SUPERIOR DE COCULA","20.37325","-103.808251"
"INSTITUTO TECNOLÓGICO SUPERIOR DE COCULA","20.37325","-103.808251"
"INSTITUTO TECNOLÓGICO SUPERIOR DE COCULA","20.37325","-103.808251"
"INSTITUTO TECNOLÓGICO SUPERIOR DE COCULA","20.37325","-103.808251"
"INSTITUTO TECNOLÓGICO SUPERIOR DE EL GRULLO","19.855222","-104.231096"
"INSTITUTO TECNOLÓGICO SUPERIOR DE EL GRULLO","19.855222","-104.231096"
"INSTITUTO TECNOLÓGICO SUPERIOR DE EL GRULLO","19.855222","-104.231096"
"INSTITUTO TECNOLÓGICO SUPERIOR DE EL GRULLO","19.855222","-104.231096"
"INSTITUTO TECNOLÓGICO SUPERIOR DE EL GRULLO","19.855222","-104.231096"
"INSTITUTO TECNOLÓGICO SUPERIOR DE LA HUERTA ","19.488535","-104.633979"
"INSTITUTO TECNOLÓGICO SUPERIOR DE LA HUERTA ","19.488535","-104.633979"
"INSTITUTO TECNOLÓGICO SUPERIOR DE LA HUERTA ","19.488535","-104.633979"
"INSTITUTO TECNOLÓGICO SUPERIOR DE LA HUERTA ","19.488535","-104.633979"
"INSTITUTO TECNOLÓGICO SUPERIOR DE LA HUERTA ","19.488535","-104.633979"
"INSTITUTO TECNOLÓGICO SUPERIOR DE LAGOS DE MORENO","21.316541","-101.911604"
"INSTITUTO TECNOLÓGICO SUPERIOR DE LAGOS DE MORENO","21.316541","-101.911604"
"INSTITUTO TECNOLÓGICO SUPERIOR DE LAGOS DE MORENO","21.316541","-101.911604"
"INSTITUTO TECNOLÓGICO SUPERIOR DE LAGOS DE MORENO","21.316541","-101.911604"
"INSTITUTO TECNOLÓGICO SUPERIOR DE LAGOS DE MORENO","21.316541","-101.911604"
"INSTITUTO TECNOLÓGICO SUPERIOR DE MASCOTA ","20.429913","-104.742719"
"INSTITUTO TECNOLÓGICO SUPERIOR DE MASCOTA ","20.429913","-104.742719"
"INSTITUTO TECNOLÓGICO SUPERIOR DE MASCOTA ","20.429913","-104.742719"
"INSTITUTO TECNOLÓGICO SUPERIOR DE MASCOTA ","20.429913","-104.742719"
"INSTITUTO TECNOLÓGICO SUPERIOR DE MASCOTA ","20.429913","-104.742719"
"INSTITUTO TECNOLÓGICO SUPERIOR DE PUERTO VALLARTA ","20.654821","-105.197917"
"INSTITUTO TECNOLÓGICO SUPERIOR DE PUERTO VALLARTA ","20.654821","-105.197917"
"INSTITUTO TECNOLÓGICO SUPERIOR DE PUERTO VALLARTA ","20.654821","-105.197917"
"INSTITUTO TECNOLÓGICO SUPERIOR DE PUERTO VALLARTA ","20.654821","-105.197917"
"INSTITUTO TECNOLÓGICO SUPERIOR DE PUERTO VALLARTA ","20.654821","-105.197917"
"INSTITUTO TECNOLÓGICO SUPERIOR DE TALA","20.645362","-103.685714"
"INSTITUTO TECNOLÓGICO SUPERIOR DE TALA","20.645362","-103.685714"
"INSTITUTO TECNOLÓGICO SUPERIOR DE TALA","20.645362","-103.685714"
"INSTITUTO TECNOLÓGICO SUPERIOR DE TALA","20.645362","-103.685714"
"INSTITUTO TECNOLÓGICO SUPERIOR DE TALA","20.645362","-103.685714"
"INSTITUTO TECNOLÓGICO SUPERIOR DE TAMAZULA ","19.687644","-103.231702"
"INSTITUTO TECNOLÓGICO SUPERIOR DE TAMAZULA ","19.687644","-103.231702"
"INSTITUTO TECNOLÓGICO SUPERIOR DE TAMAZULA ","19.687644","-103.231702"
"INSTITUTO TECNOLÓGICO SUPERIOR DE TAMAZULA ","19.687644","-103.231702"
"INSTITUTO TECNOLÓGICO SUPERIOR DE TAMAZULA ","19.687644","-103.231702"
"MANUEL LOPEZ COTILLA","20.916385","-103.891845"
"IDOLINA GAONA RUIZ","20.874140800","-103.834933100"
"BENITO JUAREZ","20.585444400","-103.860277700"
"CENTRO DE SALUD JALPILLA","21.18192008","-103.724912"
"ATRIO","20.885087","-103.839012"
"MUSEO DE LOS ABUELOS","20.885551","-103.839128"
"CENTRO DE SALUD EL SALVADOR","21.01866076","-103.7193531"
"MARIA DEL CARMEN SAUZA MORA","20.873442300","-103.842641400"
"INSTITUTO TECNOLÓGICO SUPERIOR DE ZAPOPAN","20.701904","-103.47279"
"INSTITUTO TECNOLÓGICO SUPERIOR DE ZAPOPAN","20.701904","-103.47279"
"INSTITUTO TECNOLÓGICO SUPERIOR DE ZAPOPAN","20.701904","-103.47279"
"INSTITUTO TECNOLÓGICO SUPERIOR DE ZAPOPAN","20.701904","-103.47279"
"INSTITUTO TECNOLÓGICO SUPERIOR DE ZAPOPAN","20.701904","-103.47279"
"INSTITUTO TECNOLÓGICO SUPERIOR DE ZAPOTLANEJO","20.651218","-103.031018"
"INSTITUTO TECNOLÓGICO SUPERIOR DE ZAPOTLANEJO","20.651218","-103.031018"
"INSTITUTO TECNOLÓGICO SUPERIOR DE ZAPOTLANEJO","20.651218","-103.031018"
"INSTITUTO TECNOLÓGICO SUPERIOR DE ZAPOTLANEJO","20.651218","-103.031018"
"INSTITUTO TECNOLÓGICO SUPERIOR DE ZAPOTLANEJO","20.651218","-103.031018"
"UNIVERSIDAD TECNOLÓGICA DE LA ZONA METROPOLITANA DE GUADALAJARA -","20.483016","-103.533407"
"UNIVERSIDAD TECNOLÓGICA DE LA ZONA METROPOLITANA DE GUADALAJARA -","20.483016","-103.533407"
"UNIVERSIDAD TECNOLÓGICA DE LA ZONA METROPOLITANA DE GUADALAJARA -","20.483016","-103.533407"
"UNIVERSIDAD TECNOLÓGICA DE LA ZONA METROPOLITANA DE GUADALAJARA -","20.483016","-103.533407"
"UNIVERSIDAD TECNOLÓGICA DE LA ZONA METROPOLITANA DE GUADALAJARA -","20.483016","-103.533407"
"UNIVERSIDAD POLITÉCNICA DE LA ZONA METROPOLITANA - UPZMG","20.464626","-103.413599"
"UNIVERSIDAD POLITÉCNICA DE LA ZONA METROPOLITANA - UPZMG","20.464626","-103.413599"
"UNIVERSIDAD POLITÉCNICA DE LA ZONA METROPOLITANA - UPZMG","20.464626","-103.413599"
"UNIVERSIDAD POLITÉCNICA DE LA ZONA METROPOLITANA - UPZMG","20.464626","-103.413599"
"UNIVERSIDAD POLITÉCNICA DE LA ZONA METROPOLITANA - UPZMG","20.464626","-103.413599"
"PRESIDENCIA DE ACATIC","20.78033","-102.910058"
"PRESIDENCIA DE ACATLÁN DE JUÁREZ","20.42214","-103.591484"
"PRESIDENCIA DE AHUALULCO DE MERCADO","20.701036","-103.976477"
"PRESIDENCIA DE AMACUECA","20.010822","-103.599016"
"PRESIDENCIA DE AMATITÁN","20.831342","-103.728214"
"PRESIDENCIA DE AMECA","20.547839","-104.047141"
"PRESIDENCIA DE ARANDAS","20.704980°","-102.345359°"
"PRESIDENCIA DE ATEMAJAC DE BRIZUELA","20.140816","-103.728468"
"PRESIDENCIA DE ATENGO","20.275173","-104.238166"
"PRESIDENCIA DE ATENGUILLO ","20.415249","-104.493433"
"PRESIDENCIA DE ATOTONILCO EL ALTO","20.55153","-102.508148"
"PRESIDENCIA DE ATOYAC","20.008715","-103.518019"
"PRESIDENCIA DE AUTLÁN DE NAVARRO","19.772137","-104.366702"
"PRESIDENCIA DE AYOTLÁN","20.527874","-102.333522"
"PRESIDENCIA DE AYUTLA","20.130364","-104.346478"
"PRESIDENCIA DE BOLAÑOS","21.830441","-103.781703"
"PRESIDENCIA DE CABO CORRIENTES","20.320259","-105.327306"
"PRESIDENCIA DE CAÑADAS DE OBREGÓN ","21.149614","-102.688538"
"PRESIDENCIA DE CASIMIRO CASTILLO","19.603119","-104.436235"
"PRESIDENCIA DE CHAPALA","20.289325","-103.193185"
"PRESIDENCIA DE CHIMALTITÁN ","21.779464","-103.780715"
"PRESIDENCIA DE CHIQUILISTLÁN","20.089791","-103.861683"
"PRESIDENCIA DE CIHUATLÁN","19.238384","-104.557411"
"PRESIDENCIA DE COCULA","20.365526","-103.822586"
"PRESIDENCIA DE COLOTLÁN","22.114568","-103.268185"
"PRESIDENCIA DE CONCEPCIÓN DE BUENOS AIRES","19.979259","-103.260086"
"PRESIDENCIA DE CUAUTITLÁN DE GARCÍA BARRAGÁN","19.453188","-104.358382"
"PRESIDENCIA DE CUAUTLA ","18.812709","-98.955269"
"PRESIDENCIA DE CUQUÍO","20.929037","-103.022906"
"PRESIDENCIA DE DEGOLLADO","20.446309","-102.134528"
"PRESIDENCIA DE EJUTLA ","19.906984","-104.161556"
"PRESIDENCIA DE EL ARENAL","20.776624","-103.695385"
"PRESIDENCIA DE EL GRULLO","19.80564","-104.215255"
"PRESIDENCIA DE EL LIMÓN","19.826283","-104.157787"
"PRESIDENCIA DE EL SALTO","20.519097","-103.178125"
"PRESIDENCIA DE ENCARNACIÓN DE DÍAZ","21.526234","-102.239803"
"PRESIDENCIA DE ETZATLÁN","20.763648","-104.080814"
"PRESIDENCIA DE GÓMEZ FARÍAS","19.795333","-103.478074"
"PRESIDENCIA DE GUACHINANGO ","20.575277","-104.381602"
"PRESIDENCIA DE GUADALAJARA","20.677733","-103.347845"
"PRESIDENCIA DE HOSTOTIPAQUILLO","21.058818","-104.051701"
"PRESIDENCIA DE HUEJÚCAR","22.35903","-103.210858"
"PRESIDENCIA DE HUEJUQUILLA EL ALTO","22.627463","-103.897318"
"PRESIDENCIA DE IXTLAHUACÁN DE LOS MEMBRILLOS","20.348983","-103.193006"
"PRESIDENCIA DE IXTLAHUACÁN DEL RÍO","20.863184","-103.24013"
"PRESIDENCIA DE JALOSTOTITLÁN","21.165656","-102.467881"
"PRESIDENCIA DE JAMAY","20.290915","-102.710766"
"PRESIDENCIA DE JESÚS MARÍA","21.96133","-102.343616"
"PRESIDENCIA DE JILOTLÁN DE LOS DOLORES","19.370464","-103.019648"
"PRESIDENCIA DE JOCOTEPEC","20.286336","-103.430367"
"PRESIDENCIA DE JUANACATLÁN","20.506249","-103.171884"
"PRESIDENCIA DE JUCHITLÁN","20.083975","-104.096329"
"PRESIDENCIA DE LA BARCA","20.293282","-102.540759"
"PRESIDENCIA DE LA HUERTA","19.48306","-104.639102"
"PRESIDENCIA DE LA MANZANILLA DE LA PAZ ","20.004865","-103.155582"
"PRESIDENCIA DE LAGOS DE MORENO","21.354441","-101.930833"
"PRESIDENCIA DE MAGDALENA","20.908214","-103.982186"
"PRESIDENCIA DE MASCOTA","20.523757","-104.788057"
"PRESIDENCIA DE MAZAMITLA","19.916159","-103.0206"
"PRESIDENCIA DE MEXTICACÁN","21.264308","-102.777036"
"PRESIDENCIA DE MEZQUITIC ","22.387611","-103.728389"
"PRESIDENCIA DE MIXTLÁN ","20.438934","-104.408718"
"PRESIDENCIA DE OCOTLÁN","20.345332","-102.774783"
"PRESIDENCIA DE OJUELOS DE JALISCO","21.867398","-101.591388"
"PRESIDENCIA DE PIHUAMO","19.25346","-103.379773"
"PRESIDENCIA DE PONCITLÁN","20.383313","-102.928239"
"PRESIDENCIA DE PUERTO VALLARTA","20.608932","-105.235365"
"PRESIDENCIA DE QUITUPAN","19.927567","-102.877646"
"PRESIDENCIA DE SAN CRISTÓBAL DE LA BARRANCA ","21.045294","-103.429314"
"PRESIDENCIA DE SAN DIEGO DE ALEJANDRÍA","20.99133","-101.992138"
"PRESIDENCIA DE SAN GABRIEL","19.748922","-103.766848"
"PRESIDENCIA DE SAN IGNACIO CERRO GORDO","20.741498","-102.535881"
"PRESIDENCIA DE SAN JUAN DE LOS LAGOS","21.245896","-102.33367"
"PRESIDENCIA DE SAN JUANITO DE ESCOBEDO","20.799095","-104.003929"
"PRESIDENCIA DE SAN JULIÁN","21.010611","-102.180678"
"PRESIDENCIA DE SAN MARCOS ","20.790706","-104.194514"
"PRESIDENCIA DE SAN MARTÍN DE BOLAÑOS ","21.683521","-103.815585"
"PRESIDENCIA DE SAN MARTÍN HIDALGO","20.435663","-103.929042"
"PRESIDENCIA DE SAN MIGUEL EL ALTO","21.031192","-102.402222"
"PRESIDENCIA DE SAN PEDRO TLAQUEPAQUE","20.639313","-103.310687"
"PRESIDENCIA DE SAN SEBASTIÁN DEL OESTE","20.761016","-104.852433"
"PRESIDENCIA DE SANTA MARÍA DE LOS ÁNGELES ","22.172825°","-103.225378°"
"PRESIDENCIA DE SANTA MARÍA DEL ORO ","19.587233","-102.90975"
"PRESIDENCIA DE SAYULA","19.884438","-103.599362"
"PRESIDENCIA DE TALA","20.649498","-103.701189"
"PRESIDENCIA DE TALPA DE ALLENDE","20.382332","-104.823313"
"PRESIDENCIA DE TAMAZULA DE GORDIANO","19.675252","-103.25459"
"PRESIDENCIA DE TAPALPA","19.94453","-103.757453"
"PRESIDENCIA DE TECALITLÁN","19.470729","-103.306628"
"PRESIDENCIA DE TECHALUTA DE MONTENEGRO ","20.073947","-103.552422"
"PRESIDENCIA DE TECOLOTLÁN","20.202396","-104.050566"
"PRESIDENCIA DE TENAMAXTLÁN","20.21874","-104.165206"
"PRESIDENCIA DE TEOCALTICHE","21.437077","-102.575749"
"PRESIDENCIA DE TEOCUITATLÁN DE CORONA","20.091613","-103.378329"
"PRESIDENCIA DE TEPATITLÁN DE MORELOS","20.815058","-102.758342"
"JOSE MA MORELOS Y PAVON","20.685750100","-103.869888800"
"PRESIDENCIA DE TEUCHITLÁN","20.683243","-103.847456"
"PRESIDENCIA DE TIZAPÁN EL ALTO","20.159176","-103.044766"
"PRESIDENCIA DE TLAJOMULCO DE ZÚÑIGA","20.475599","-103.447081"
"PRESIDENCIA DE TOLIMÁN","19.602417","-103.915055"
"PRESIDENCIA DE TOMATLÁN","19.943007","-105.246858"
"PRESIDENCIA DE TONALÁ","20.624603","-103.242435"
"PRESIDENCIA DE TONAYA","19.786745","-103.972118"
"PRESIDENCIA DE TONILA","19.408998","-103.551333"
"PRESIDENCIA DE TOTATICHE","21.927745","-103.444269"
"PRESIDENCIA DE TOTOTLÁN","20.540819","-102.793725"
"PRESIDENCIA DE TUXCACUESCO ","19.698356","-103.983526"
"PRESIDENCIA DE TUXCUECA","20.155169","-103.185061"
"PRESIDENCIA DE TUXPAN","19.55703","-103.376053"
"PRESIDENCIA DE UNIÓN DE SAN ANTONIO","21.129264","-102.006776"
"PRESIDENCIA DE UNIÓN DE TULA","19.957251","-104.267977"
"PRESIDENCIA DE VALLE DE GUADALUPE","21.011276","-102.617077"
"PRESIDENCIA DE VALLE DE JUÁREZ","19.932581","-102.943572"
"PRESIDENCIA DE VILLA CORONA","20.417733","-103.663413"
"PRESIDENCIA DE VILLA GUERRERO","18.961373","-99.642083"
"PRESIDENCIA DE VILLA HIDALGO","21.673417","-102.59055"
"PRESIDENCIA DE VILLA PURIFICACIÓN","19.718786","-104.600998"
"PRESIDENCIA DE YAHUALICA DE GONZÁLEZ GALLO","21.178144","-102.886026"
"PRESIDENCIA DE ZACOALCO DE TORRES","20.230955","-103.57117"
"PRESIDENCIA DE ZAPOPAN","20.721197","-103.38932"
"PRESIDENCIA DE ZAPOTILTIC","19.627057","-103.41699"
"PRESIDENCIA DE ZAPOTITLÁN DE VADILLO","19.547337","-103.813607"
"PRESIDENCIA DE ZAPOTLÁN DEL REY","20.467393","-102.924908"
"PRESIDENCIA DE ZAPOTLÁN EL GRANDE","19.704787","-103.46227"
"PRESIDENCIA DE ZAPOTLANEJO","20.622563","-103.069331"
"SE UPN MELAQUE","19.24002","-104.55958"
"SE MEIPE DE UNION DE TULA","19.952163","-104.270687"
"SE ESCUELA NORMAL DE UNION DE TULA","19.962412","-104.263519"
"SE CENDI NO. 6 GPE ELIZONDO VEGA  DE AUTLAN","19.763968","-104.363323"
"SE CENDI NO. 6 GPE ELIZONDO VEGA  DE AUTLAN","19.763968","-104.363323"
"SE ALMACEN DRSE AUTLAN","19.744986","-104.362011"
"SE ALMACEN  AUTLAN","19.754653","-104.367956"
"SE DRSE AUTLAN","19.769265","-104.367052"
"SE UPN AUTLAN","19.766598","-104.37734"
"SE DRSE AUTLAN","19.769297","-104.36707"
"SE DRSE CHIMALTITAN","",""
"SE DRSE AUTLAN","19.769297","-104.36707"
"SE ESCUELA PRIMARIA JUAN DE LA BARRERA PTO. VALLARTA","20.672545","-105.209707"
"SE CENDI NO 4 BEATRIZ HERNANDEZ","20.657754","-105.23529"
"SE CENTRO DE MAESTROS DE PTO. VALLARTA","20.654071","-105.198286"
"SE ESCUELA PRIMARIA URBANA NO. 352 PTO. VALLARTA","20.654249","-105.198302"
"SE BODEGA PUERTO VALLARTA","20.648451","-105.225968"
"SE SUB DRSE  TOMATLAN","19.93817","-105.249566"
"SE SUB DRSE  ZACOALCO","20.225282","-103.575638"
"SE SUB DRSE ZACUALCO","20.225282","-103.575638"
"SE CENDI NO. 7 MANUEL CERVANTES IMAZ","20.634888","-103.44564"
"SE CENDI NO. 7 MANUEL CERVANTES IMAZ","20.634888","-103.44564"
"CENTRO DE MAESTROS NO. 1434","20.52895","-103.361927"
"SE MEIPE DE LISBOA EN GDL","20.71145","-103.335536"
"SE UPN TLAQUEPAQUE","20.632958","-103.301479"
"SE UPN TLAQUEPAQUE","20.632958","-103.301479"
"SE DRSE ZAPOPAN","20.645261","-103.442915"
"SE ALMACEN DE LIBROS DE TEXTO","20.645096","-103.443144"
"SE ALMACEN DE LIBROS DE TEXTO","20.644508","-103.443097"
"SE BODEGA MIRAMAR","20.641571","-103.44486"
"SE ESCUELA NORMAL SUPERIOR DE ESPECIALIDADES DE ZAPOPAN","20.655774","-103.394929"
"SE ESCUELA SUPERIOR DE JALISCO","20.712228","-103.335449"
"SE CENTRO DE MAESTROS 1407 GDL","20.71148","-103.33592"
"SE FOMENTO ARTISTICO","20.69838","-103.353662"
"SE BENEMERITA Y CENTENARIA ESCUELA NORNAL DE JALISCO","20.695231","-103.346665"
"SE BODEGA DIEGO RIVERA EN GDL.","20.697807","-103.33961"
"SE CENTRO DE INVESTIGACION GDL","20.670103","-103.374783"
"SE FOMENTO ARTISTICO","20.698389","-103.353688"
"SE CENTRO DE INVESTIGACION GDL","20.670103","-103.374783"
"SE CEDETEC","20.654311","-103.421322"
"SE SIDE DE AV. TEPEYAC","20.651972","-103.439857"
"SE ESCUELA NORMAL DE EDUCADORAS ZAPOPAN","20.629419","-103.425234"
"SE ESCUELA NORMAL DE EDUCADORAS ZAPOPAN","20.629419","-103.425234"
"SE CENTRO DE MAESTROS 1415","20.629419","-103.425234"
"SE UPN TLAQUEPAQUE","20.632958","-103.301479"
"SE ESCUELA NORMAL DE EDUCACION FISICA GDL","20.69805","-103.390417"
"SE CENDI NO 2 GUADALUPE RODEA ","20.667636","-103.305418"
"SE CENDI NO 9 CHISPITAS DEL CONOCIMIENTO","20.66246","-103.297576"
"SE DRSE REGION CENTRO 3 ","20.634047","-103.325973"
"SE UPN DE  LUIS MANUEL ROJAS","20.731238","-103.359657"
"SE CENDI NO 1 TZINTLICALLI ","20.72501","-103.429998"
"SE CENDI  NO. 03 GDL","20.733095","-103.317821"
"SE CENTRO DE MAESTROS DE TONALA","20.627656","-103.243594"
"SE ESCUELA SECUNDARIA NO. 13 ZAPOPAN","20.722233","-103.362054"
"SE CENTRO DE INVESTIGACION ZAPOPAN","20.717308","-103.367152"
"SE PROGRAMA NAL. PARA ACTUALIZACION PERMANENTE PARA MAESTROS","20.692784","-103.353685"
"SE CENDI NO. 1 GPE ELIZONDO VEGA","20.696883","-103.346918"
"SE CENDI NO. 11  AMIGOS DEL CONOCIMIENTO","20.702177","-103.336042"
"SE ESCUELA SUPERIOR DE JALISCO","20.712218","-103.335492"
"SE CENTRO DE MAESTROS GDL ESCUELA PRISCILIANO SANCHEZ","20.715556","-103.350886"
"SE CENDI JUAN TABLADA","20.696883","-103.346918"
"SE ASOCIACION DE PADRES DE FAMILIA","20.688421","-103.357944"
"SE UPN TLAQUEPAQUE DE PEDRO CORONEL","20.632951","-103.301475"
"SE MEIPE DE AVILA CAMACHO GDL","20.70808","-103.368022"
"SE DIR ACOMPAÑAMIENTO PEDAGOGICO","20.700828","-103.360105"
"SE CONSEJO INTER-INSTITUCIONAL DE INVESTIGACION GDL","20.701832","-103.360323"
"SE PROGRAMA ACCIONES COMPENSATORIAS (PACAREIB)","20.705805","-103.354494"
"SE CENTRO DE MAESTROS GDL","20.696039","-103.355889"
"SE ESCUELA NORMAL SUPERIOR DE JALISCO","20.712228","-103.335449"
"SE PROGRAMA ACCIONES COMPENSATORIAS (PACAREIB)","20.705805","-103.354494"
"SE PROGRAMA ACCIONES COMPENSATORIAS (PACAREIB)","20.705805","-103.354494"
"SE UPN DE PLAN DE SAN LUIS","20.697481","-103.362353"
"SE FOMENTO ARTISTICO","20.698389","-103.353688"
"SE FOMENTO ARTISTICO","20.698389","-103.353688"
"SE UPN TLAQUEPAQUE","20.631803","-103.300994"
"SE CENTRO DE MAESTROS DE ZAPOPAN","20.73139","-103.360179"
"SE DRSE CD GUZMAN","19.703233","-103.462235"
"SE DRSE CD GUZMAN","19.703233","-103.462235"
"SE DRSE CD GUZMAN","19.703233","-103.462235"
"SE ESCUELA MERCEDES MADRIGAL DE CD GUZMAN","19.704681","-103.465577"
"SE BODEGA CD GUZMAN","19.697162","-103.460059"
"SE CENTRO DE MAESTROS  CD GUZMAN","19.699542","-103.464807"
"SE CENDI NO 3 CD GUZMAN","19.702641","-103.475706"
"SE OSEJ  CD GUZMAN","",""
"SE CENDI NO 3 CD GUZMAN","19.702641","-103.475706"
"SE CENTRO DE MAESTROS  CD GUZMAN","19.699542","-103.464807"
"SE MEIPE CD GUZMAN","19.702979","-103.478065"
"SE UPN CD GUZMAN","19.696318","-103.47815"
"SE CENTRO DE MAESTROS DE SAYULA","19.871536","-103.599959"
"SE CENTRO DE MAESTROS NO. 1421 YAHUALICA","21.184315","-102.889016"
"SE SUB DRSE TEOCALTICHE","21.438602","-102.576862"
"SE SUB DRSE TEOCALTICHE","21.438602","-102.576862"
"SE ESCUELA NORMAL DE ARANDAS","20.702394","-102.340224"
"SE ESCUELA NORMAL DE ARANDAS","20.702394","-102.340224"
"SE MEIPE DE ARANDAS","20.702142","-102.340329"
"SE ESCUELA NORMAL DE ARANDAS","20.702394","-102.340224"
"SE SUB DRSE ARANDAS","20.691191","-102.348442"
"SE SUB DRSE ARANDAS","20.691191","-102.348442"
"SE CENTRO DE MAESTROS NO. 1418 CUAUTITLAN PRIMARIA PAULINO NAVARRO","19.450713","-104.35994"
"ADOLFO LOPEZ MATEOS","20.900586","-103.832524"
"SE ALMACEN AMECA","20.537046","-104.04243"
"SE DRSE  AMECA","20.549499","-104.047315"
"SE ESCUELA NORMAL DE SAN ANTONIO MATUTE","20.563151","-103.952889"
"SE DRSE  AMECA","20.549499","-104.047315"
"SE CENTRO DE MAESTROS DE AMECA","20.53834","-104.039774"
"SE DRSE  AMECA","20.549499","-104.047315"
"SE MEIPE DE SAN ANTONIO MATUTE","20.563182","-103.952887"
"SE ESCUELA NORMAL DE SAN ANTONIO MATUTE","20.563151","-103.952889"
"SE ESCUELA NORMAL DE ATEQUIZ","20.397524","-103.131624"
"SE ESCUELA SECUNDARIA NO. 1 CHAPALA","20.30107","-103.189151"
"SE ALMACEN DRSE AJIJIC","20.299368","-103.253747"
"SE CENDI DE AJIJIC","20.299338","-103.268581"
"SE SUB DRSE  AJIJIC","20.299368","-103.253747"
"SE CENDI NO 5 VIDA INFANTIL ","20.299338","-103.268581"
"SE CENTRO DE MAESTROS NO. 1419 TIZAPAN","20.167757","-103.042006"
"SE CENTRO DE MAESTROS DE COCULA","20.367586","-103.822204"
"SE DRSE COCULA","20.361161","-103.819811"
"SE DRSE COCULA","20.361161","-103.819811"
"SE DRSE COCULA","20.361161","-103.819811"
"SE DRSE COCULA","20.361161","-103.819811"
"SE DELEGACION REGIONAL ALTOS SUR","20.786825","-102.726523"
"SE DRSE DE TEPATITLAN","20.786825","-102.726523"
"SE ALMACEN GENERAL TEPATITLAN","20.797413","-102.767049"
"SE DRSE DE TEPATITLAN","20.786825","-102.726523"
"SE DRSE DE TEPATITLAN","20.786825","-102.726523"
"SE SECTOR  EDUCATIVO NO. 5","20.805079","-102.784288"
"SE CENTRO DE MAESTROS NO. 1423 TEPATITLAN","20.805045","-102.784102"
"SE BODEGA TEPATITLAN","20.797393","-102.767071"
"SE CENTRO DE MAESTROS DE MAZAMITLA","19.923714","-103.028453"
"SE SUB DRSE  MAZAMITLA","19.921206","-103.01756"
"SE SUB DRSE  MAZAMITLA","19.921152","-103.017486"
"SE SUB DRSE  TALA","20.648964","-103.703365"
"SE SUB DRSE  TALA","20.648964","-103.703365"
"SE SUB DRSE  TALA","20.648964","-103.703365"
"SE CENTRO DE MAESTROS 1432 DE TALA","20.668554","-103.708837"
"SE CENTRO DE ATENCION MULTIPLE NO. 31 AHUALULCO","20.706526","-103.975801"
"SE CENTRO DE MAESTROS NO. 1420 ETZATLAN","20.769073","-104.079988"
"SE CENTRO DE MAESTROS DE TALPA","20.380627","-104.825531"
"SE CENTRO DE MAESTROS DE MASCOTA","20.545388","-104.814226"
"SE SUB DRSE ATOTONILCO","20.544499","-102.525269"
"SE SUB DRSE ATOTONILCO","20.544499","-102.525269"
"SE DRSE OCOTLAN","20.367423","-102.770668"
"SE DRSE OCOTLAN","20.366685","-102.770627"
"SE DRSE OCOTLAN","20.36673","-102.769743"
"SE REPRESENTACION OCOTLAN","",""
"SE DRSE OCOTLAN","20.366422","-102.770015"
"SE CENTRO DE MAESTROS DE OCOTLAN","20.362784","-102.778717"
"SE DRSE OCOTLAN","20.366931","-102.771193"
"SE SUB DRSE  JALOSTOTITLAN","21.16607","-102.46987"
"SE SUB DRSE  JALOSTOTITLAN","21.16607","-102.46987"
"SE DRSE LAGOS DE MORENO","21.323191","-101.970708"
"SE CENTRO DE MAESTROS DE LAGOS","21.369606","-101.929257"
"SE DRSE LAGOS DE MORENO","21.323191","-101.970708"
"SE DRSE LAGOS DE MORENO","21.323191","-101.970708"
"SE BODEGA DRSE LAGOS DE MORENO","21.350439","-101.94174"
"SE CENDI NO. 4 GABRIELA MISTRAL","21.353738","-101.930981"
"SE DRSE LAGOS DE MORENO","21.323191","-101.970708"
"SE DRSE LAGOS DE MORENO","21.323191","-101.970708"
"SE ALMACEN DRSE ALTOS NORTE","21.322712","-101.971552"
"SE CENDI NO. 5 DE LAGOS","21.363823","-101.940314"
"SE DRSE OJUELOS","21.861958","-101.594369"
"SE SUB DRSE OJUELOS","21.861983","-101.594422"
"SE DRSE COLOTLAN","22.10879","-103.265346"
"SE DRSE COLOTLAN","22.10879","-103.265346"
"SE ALMACEN COLOTLAN","",""
"SE ESCUELA NORMAL DE COLOTLAN","22.106911","-103.271683"
"SE DRSE COLOTLAN","22.10879","-103.265346"
"SE ESCUELA NORMAL DE COLOTLAN","22.106911","-103.271683"
"CECAJ ALMACEN CONSEJO ADICCIONES","20.666695","-103.352806"
"CECAJ CENTRO NUEVA VIDA AMECA ","20.548762","-104.063314"
"CECAJ CENTRO NUEVA VIDA ARANDAS","20.707346","-102.333248"
"CECAJ CENTRO NUEVA VIDA AUTLAN","19.771893","-104.380717"
"CECAJ CENTRO NUEVA VIDA COLOTLAN","22.11148","-103.263684"
"CECAJ CENTRO NUEVA VIDA DE CD GUZMAN","19.720142","-103.467205"
"CECAJ CENTRO NUEVA VIDA HUERTA","19.485547","-104.637399"
"CECAJ CENTRO NUEVA VIDA LAGOS DE MORENO","21.373078","-101.921281"
"CECAJ CENTRO NUEVA VIDA MASCOTA","20.532013","-104.788655"
"CECAJ CENTRO NUEVA VIDA OCOTLAN","20.355797","-102.758887"
"CECAJ CENTRO NUEVA VIDA PUERTO VALLARTA","20.712245","-105.213245"
"CECAJ CENTRO NUEVA VIDA SAN JUAN DE LOS LAGOS","21.246","-102.336915"
"CECAJ CENTRO NUEVA VIDA TAMAZULA","19.69334","-103.242004"
"CECAJ CENTRO NUEVA VIDA TEPALTITLAN","20.811837","-102.777685"
"CECAJ CENTRO NUEVA VIDA TLAJOMULCO","",""
"CECAJ CENTRO NUEVA VIDA TLAQUEPAQUE","20.616122","-103.294874"
"CECAJ CENTRO NUEVA VIDA TONALA I","20.649783","-103.218347"
"CECAJ CENTRO NUEVA VIDA TONALA II","20.615518","-103.264909"
"CECAJ CENTRO NUEVA VIDA ZAPOPAN 1","20.748365","-103.373383"
"CECAJ CENTRO NUEVA VIDA ZAPOPAN II","20.658185","-103.446711"
"CENTRO ATENCION PRIMARIA EN ADICCIONES","20.700207","-103.289555"
"CEPAJ DESFIBRILADOR (DESA)","20.674494","-103.36865"
"CEPAJ EDIFICIO CONSEJO ACCIDENTES","20.716319","-103.370335"
"CEPAJ REPRESENTACION ZAPOPAN","20.716319","-103.370335"
"CONTRALORIA AV VALLARTA","20.675083","-103.364199"
"COORD CRECIMIENTO Y DESARROLLO LOPEZ COTILLA","20.673555","-103.369654"
"COORD. ADMVA SEGURIDAD AV. UNION","20.670669","-103.373788"
"COORD. GRAL. SEGURIDAD EDIFICIO UNION","20.670669","-103.373788"
" FC AGENCIA MP SAN JULIAN","21.010256","-102.177087"
"CAPAVI","20.701567","-103.3376"
"FC AGENCA MP  IJCF (SEMEFO)","20.622543","-103.314393"
"FC AGENCIA  DETENIDOS PTO VALLARTA","20.697747","-105.243569"
"FC AGENCIA MP  PIHUAMO","19.684097","-103.467638"
"FC AGENCIA MP ACATIC","20.780309","-102.911565"
"FC AGENCIA MP ACATLAN","20.42057","-103.592029"
"FC AGENCIA MP AHUALULCO","20.695649","-103.970621"
"FC AGENCIA MP ATEMAJAC","20.719871","-103.355353"
"FC AGENCIA MP AYUTLA","20.127859","-104.343573"
"FC AGENCIA MP CEINJURE CD. GUZMAN","19.646668","-103.504863"
"FC AGENCIA MP CEINJURE CD. GUZMAN","19.646668","-103.504863"
"FC AGENCIA MP CEINJURE TEPATITILAN","20.786726","-102.726616"
"FC AGENCIA MP CEINJURE TEQUILA","20.876806","-103.83836"
"FC AGENCIA MP COCULA","20.365261","-103.823959"
"FC AGENCIA MP CRUZ ROJA PARQUE MORELOS","20.679133","-103.342055"
"FC AGENCIA MP CRUZ VERDE - DELGADILLO ARAUJO","20.691219","-103.352077"
"FC AGENCIA MP CRUZ VERDE - ERNESTO ARIAS ","20.662281","-103.342909"
"FC AGENCIA MP CRUZ VERDE  LAS AGUILAS","20.632447","-103.415874"
"FC AGENCIA MP CRUZ VERDE - RUÍZ SÁNCHEZ","20.663067","-103.31871"
"FC AGENCIA MP CRUZ VERDE DELGADILLO ARAUJO","20.691219","-103.352077"
"FC AGENCIA MP CRUZ VERDE DR. FARAH  ZAPOPAN","20.729732","-103.384096"
"FC AGENCIA MP CRUZ VERDE ERNESTO ARIAS","20.662291","-103.342905"
"FC AGENCIA MP CRUZ VERDE LAS AGUILAS","20.632447","-103.415874"
"FC AGENCIA MP CRUZ VERDE RUIZ SANCHEZ","20.663096","-103.318721"
"FC AGENCIA MP CRUZ VERDE ZAPOPAN - LA  C.U.R.V.A.","20.729749","-103.384112"
"FC AGENCIA MP CUAUTITLAN","19.45265","-104.355256"
"FC AGENCIA MP CUQUIO","20.928803","-103.024335"
"FC AGENCIA MP DEGOLLADO","20.447598","-102.140056"
"FC AGENCIA MP ENCARNACION DE DIAZ","21.526037","-102.239571"
"FC AGENCIA MP ENCARNACION DE DIAZ","21.526037","-102.239571"
"FC AGENCIA MP HUEJUQUILLA","20.362901°","-103.822497°"
"FC AGENCIA MP HUEJUQUILLA","22.627052","-103.897029"
"FC AGENCIA MP IXTLAHUACAN DE LOS MEMBRILLOS","20.349298","-103.192785"
"FC AGENCIA MP IXTLAHUACAN DEL RIO","20.864185","-103.239306"
"FC AGENCIA MP IXTLAHUACAN DEL RIO","20.86718","-103.239879"
"FC AGENCIA MP JESUS MARIA","20.60772","-102.224435"
"FC AGENCIA MP JESUS MARIA","20.60772","-102.224435"
"FC AGENCIA MP JOCOTEPEC","20.281152","-103.434293"
"FC AGENCIA MP JUANACATLAN","20.509047","-103.171855"
"FC AGENCIA MP JUZGADOS LAGOS DE MORENO","21.369442","-101.908666"
"FC AGENCIA MP LA BARCA","20.276794","-102.549441"
"FC AGENCIA MP LA HUERTA","22.108935°","-103.265519°"
"FC AGENCIA MP LA HUERTA","19.483516","-104.63981"
"FC AGENCIA MP LEONARDO OLIVA ","20.645968","-103.382042"
"FC AGENCIA MP MAGDALENA","20.907698","-103.978096"
"FC AGENCIA MP MAZAMITLA","19.915137","-103.019177"
"FC AGENCIA MP MAZAMITLA","22.106886°","-103.271760°"
"FC AGENCIA MP OBLATOS","20.689234","-103.295022"
"FC AGENCIA MP OBLATOS","20.707061","-103.360596"
"FC AGENCIA MP OJUELOS","21.960940°","-103.332377°"
"FC AGENCIA MP PIHUAMO","19.251989","-103.377908"
"FC AGENCIA MP PONCITLAN","20.380801","-102.926836"
"FC AGENCIA MP PONCITLAN","20.380801","-102.926836"
"FC AGENCIA MP PUERTO VALLARTA","20.685066","-105.22704"
"FC AGENCIA MP QUITUPAN","19.927235","-102.876157"
"FC AGENCIA MP SAN GABRIL","19.749776","-103.767687"
"FC AGENCIA MP SAN JULIAN","21.010218","-102.177087"
"FC AGENCIA MP SAN MARTIN BOLAÑOS","21.68215","-103.814712"
"FC AGENCIA MP SAN MIGUEL EL ALTO","21.03197","-102.401896"
"FC AGENCIA MP SAN SEBASTIAN DEL OESTE","20.761218","-104.852528"
"FC AGENCIA MP SAYULA","19.973850°","-103.259915°"
"FC AGENCIA MP TALA","20.649427","-103.698426"
"FC AGENCIA MP TAPALPA","19.945028","-103.757323"
"FC AGENCIA MP TAPALPA","19.945028","-103.757323"
"FC AGENCIA MP TECALITLAN","19.470784","-103.306232"
"FC AGENCIA MP TEOCALTICHE","21.436718","-102.574754"
"FC AGENCIA MP TIZAPAN","20.161279","-103.044201"
"FC AGENCIA MP TIZAPAN EL ALTO","19.452585°","-104.360830°"
"FC AGENCIA MP TLAQUEPAQUE","20.641678","-103.300574"
"FC AGENCIA MP TOMATLAN","19.452758°","-104.360873°"
"FC AGENCIA MP TONALA","20.621547","-103.247004"
"FC AGENCIA MP TONAYA","19.783273","-103.967566"
"FC AGENCIA MP TOTOTLAN","20.541474","-102.794916"
"FC AGENCIA MP TUTELAR","20.64135","-103.442594"
"FC AGENCIA MP TUXPAN","19.556122","-103.379017"
"FC AGENCIA MP UNIDAD ADVA. COL JALISCO","",""
"FC AGENCIA MP UNION DE TULA","19.957177","-104.269491"
"FC AGENCIA MP UNION DE TULA","19.384353°","-104.519205°"
"FC AGENCIA MP USA","19.452042°","-104.357426°"
"FC AGENCIA MP VILLA GUERRERO","21.983266","-103.591816"
"FC AGENCIA MP VILLA HIDALGO","20.202145°","-104.406291°"
"FC AGENCIA MP VILLA PURIFICACION","20.202053°","-104.406028°"
"FC AGENCIA MP YAHUALICA","20.200163°","-104.406953°"
"FC AGENCIA MP ZACOALCO","20.230346","-103.571216"
"FC AGENCIA MP ZAPOTILTIC","19.62448","-103.416862"
"FC AGENCIA MP ZAPOTLANEJO","20.609285","-103.086195"
"FC AGENCIA MP-DIGPRES","20.555318","-103.194182"
"FC AGENCIA ZONA 7 DETENIDOS","20.646227","-103.382059"
"FC AVERIGUACIONES PREVIAS GDL","",""
"FC CEINJURE LAGOS","21.32724","-102.000451"
"FC CEINJURE TEPATITLAN","20.786776","-102.726627"
"FC CEINJURE TEQUILA","20.87632","-103.812695"
"FC CENTRO DE VALIDACION VEHICULAR ZAPOPAN","20.775886","-103.455567"
"FC CENTRO VEHICULAR DEVOLUCION INMEDIATA (C.V.D.I.)","20.621712","-103.31474"
"FC COMANDANCIA AVIGIATOS GLD","20.620324","-103.34563"
"FC COORD. JUZGADOS PENALES DIGPRES","20.558413","-103.196753"
"FC DELEGACION  REGIONAL PTO. VALLARTA","20.686211","-105.22912"
"FC DELEGACION AUTLAN","19.80451","-104.218464"
"FC DELEGACION REGIONAL AMECA","20.552309","-104.047073"
"FC DELEGACION REGIONAL AUTLAN","19.772742","-104.367135"
"FC DELEGACION REGIONAL CD GUZMAN","19.705582","-103.462781"
"FC DELEGACION REGIONAL COLOTLAN","22.113383","-103.267902"
"FC DELEGACION REGIONAL EL GRULLO","19.804541","-104.218464"
"FC DELEGACION REGIONAL EL GRULLO","19.804541","-104.218464"
"FC DELEGACION REGIONAL LAGOS","21.369207","-101.908346"
"FC DELEGACION REGIONAL LAGOS","21.368978","-101.90831"
"FC DELEGACION REGIONAL MASCOTA","20.530963","-104.788329"
"FC DELEGACION REGIONAL OCOTLAN","20.334685","-102.771142"
"FC DELEGACION REGIONAL TAMAZULA","19.674193","-103.252213"
"FC DELEGACION REGIONAL TEPATITLAN","20.803988","-102.783497"
"FC EDIFICIO CALLE 14","20.638895","-103.361077"
"FC EDIFICIO CALZADA","20.686162","-103.335802"
"FC EDIFICIO NVO. DISTRITO 1","20.560215","-103.193022"
"FC JUICIOS ORALES PUENTE GRANDE","20.55833","-103.197141"
"FC JUZGADOS PENALES PUENTE GRANDE","20.558353","-103.196732"
"FC POLICIA INVESTIGADORA AHUALULCO","20.704845","-103.972201"
"FC POLICIA INVESTIGADORA CUAUTITLAN DE GARCIA BARRAGAN","19.45169","-104.357773"
"FC POLICIA INVESTIGADORA EL SALTO","20.509096","-103.201683"
"FC POLICIA INVESTIGADORA IXTLAHUACAN DEL RIO","20.864189","-103.239305"
"FC POLICIA INVESTIGADORA JALOSTOTITLAN","21.165431","-102.465731"
"FC POLICIA INVESTIGADORA LA HUERTA","19.479838","-104.642885"
"FC POLICIA INVESTIGADORA PIHUAMO","19.252378","-103.377689"
"FC POLICIA INVESTIGADORA PTO VALLARTA","20.697588","-105.243554"
"FC POLICIA INVESTIGADORA SAYULA","19.88782","-103.600243"
"FC POLICIA INVESTIGADORA TAPALPA","19.94547","-103.759671"
"FC POLICIA INVESTIGADORA TLAJOMULC","20.475296","-103.449786"
"FC POLICIA INVESTIGADORA ZACOALCO","20.231292","-103.563376"
"FC REPRESENTACION CALLE 18","20.641249","-103.357888"
"FC SUB DELEGACION ARANDAS","20.703007","-102.345312"
"FC SUB DELEGACION ATOTONILCO","20.556522","-102.509951"
"FC SUB DELEGACION CASIMIRO CASTILLO","19.603018","-104.439198"
"FC SUB DELEGACION CHAPALA","20.291233","-103.191259"
"FC SUB DELEGACION CIHUATLAN","19.239473","-104.573284"
"FC SUB DELEGACION EL SALTO","20.517388","-103.17964"
"FC SUB DELEGACION JALOSTOTITLAN","21.165426","-102.465728"
"FC SUB DELEGACION REGIONAL DEL SALTO","20.517481","-103.181085"
"FC SUB DELEGACION SAN JUAN DE LOS LAGOS","21.24746","-102.331735"
"FC SUB DELEGACION TALA ","20.649422","-103.69844"
"FC SUB DELEGACION TALPA","20.38484","-104.822895"
"FC SUB DELEGACION TECOLOTLAN","20.205786","-104.051944"
"BALNEARIO LA TOMA","20.908282","-103.82811"
"FC SUB DELEGACION TLAJOMULCO","20.475534","-103.449731"
"FC TUTELAR","20.641618","-103.442648"
"FC VALIDACION VEHICULAR TONALA","20.687168","-103.263439"
"FGE, CIUDAD NIÑEZ","20.687045","-103.373793"
"FISCALIA ANTICORRUPCION","20.705957","-103.344998"
"PROSOC CEINJURE AMECA","20.531184","-104.074067"
"PROSOC CEINJURE LAGOS DE MORENO","21.327255","-102.000473"
"PROSOC CEINJURE PUERTO VALLARTA","20.721495","-105.190129"
"PROSOC CEINJURE TEPATITLAN","20.786767","-102.726617"
"PROSOC DEFENSORIA DE OFICIOS  CD GUZMAN","19.646644","-103.504855"
"PROSOC DEFENSORIA DE OFICIOS  CD GUZMAN","19.705902","-103.464238"
"PROSOC DEFENSORIA DE OFICIOS  TEPATITLAN","20.813562","-102.758343"
"PROSOC DEFENSORIA DE OFICIOS AHUALULCO","20.695669","-103.970617"
"PROSOC DEFENSORIA DE OFICIOS ARANDAS","20.706590°","-102.342884°"
"PROSOC DEFENSORIA DE OFICIOS ATOTONILCO","20.551497","-102.508196"
"PROSOC DEFENSORIA DE OFICIOS AUTLAN","19.770574","-104.369714"
"PROSOC DEFENSORIA DE OFICIOS CHAPALA","20.29993","-103.189969"
"PROSOC DEFENSORIA DE OFICIOS CIHUATLAN","19.237998","-104.556671"
"PROSOC DEFENSORIA DE OFICIOS COCULA","20.366392","-103.822123"
"PROSOC DEFENSORIA DE OFICIOS ENCARNACION","21.52617","-102.242118"
"PROSOC DEFENSORIA DE OFICIOS JALOSTOTITLAN","21.167799","-102.467428"
"PROSOC DEFENSORIA DE OFICIOS LA BARCA","20.27867","-102.549912"
"PROSOC DEFENSORIA DE OFICIOS MASCOTA","20.52194","-104.787833"
"PROSOC DEFENSORIA DE OFICIOS MAZAMITLA","19.915204","-103.019615"
"PROSOC DEFENSORIA DE OFICIOS SAN GABRIEL","19.748913","-103.766894"
"PROSOC DEFENSORIA DE OFICIOS SAN JUAN LAGOS","21.245712","-102.333391"
"PROSOC DEFENSORIA DE OFICIOS SAYULA","19.884883","-103.599061"
"PROSOC DEFENSORIA DE OFICIOS TALA","20.649671","-103.707725"
"PROSOC DEFENSORIA DE OFICIOS TAMAZULA","19.674252","-103.252239"
"PROSOC DEFENSORIA DE OFICIOS TEOCALTICHE","21.437071","-102.576171"
"DESTILADORA RUBIO","20.878948","-103.823161"
"PROSOC DEFENSORIA DE OFICIOS TLAJOMULCO","20.475952","-103.446916"
"PROSOC DEFENSORIA DE OFICIOS TULA","19.9572","-104.268025"
"PROSOC DEFENSORIA DE OFICIOS YAHUALICA","21.179215","-102.88777"
"PROSOC DEFENSORIA DE OFICIOS ZACUALCO","20.231567","-103.576728"
"PROSOC DIRECCION DEFENSA DE ADOLESENTES, ADULTOS Y JOVENES","20.641358","-103.442595"
"PROSOC JUICIOS O. CD GUZMAN","19.646644","-103.504855"
"PROSOC REPRESENTACION  MANZANILLA DE LA PAZ","20.004072","-103.155867"
"PROSOC REPRESENTACION  PODER JUDICIAL","20.677441","-103.341613"
"PROSOC REPRESENTACION DIGPRES","20.555234","-103.193947"
"PROSOC REPRESENTACION ZAPOTLANEJO","20.609257","-103.086149"
"PROSOC CIUDAD JUDICIAL","20.680962","-103.457073"
" UNIRSE PUERTO VALLARTA","20.648403","-105.225746"
"RED AUTLAN / 013 RECAUDADORA","19.772155","-104.363741"
"RED CD GUZMAN / 019 RECAUDAODRA","19.709457","-103.463024"
"RED SITE ADMINISTRACION","20.696415","-103.348892"
"RED SITE ARCHIVO","20.701712","-103.348186"
"RED UNIRSE COLOTLAN","22.099437","-103.269475"
"RED UNIRSE LAGOS DE MORENO","21.371814","-101.922417"
"RED UNIRSE PUERTO VALLARTA","20.648433","-105.225768"
"ADMON ALMACEN GENERAL","20.641599","-103.44264"
"ADMON. ALMACEN GENERAL","20.641599","-103.44264"
"DEPOSITO VEHICULAR  ALAMO TLAQUEPAQUE","20.622325","-103.314519"
"DEPOSITO VEHICULAR #11 SAN AGUSTIN","20.523377","-103.461816"
"DEPOSITO VEHICULAR #8 ZOOLOGICO","20.72419","-103.304952"
"DEPOSITO VEHICULAR NO. 11 SAN AGUSTIN","20.523377","-103.461816"
"DEPOSTIO VEHICULAR NO. 6 MIRAMAR","20.639343","-103.443511"
"DIF","20.687343","-103.382523"
"EDIFICIO PEDRO MORENO","20.675794","-103.346166"
"EDIFICIO PEDRO MORENO","20.675794","-103.346166"
"FEDERACION DE SINDICATOS","20.683437","-103.346724"
"UNIRSE COLOTLAN","22.099138","-103.269484"
"UNIRSE LAGOS DE MORENO","21.371734","-101.922331"
"UNIRSE LAGOS DE MORENO","21.371734","-101.922331"
"SADER EDIFICIO HIDALGO","20.67665","-103.367779"
"SADER EDIFICIO HIDALGO","20.67665","-103.367779"
"SADER PATIO DE MAQUINAS","20.641653","-103.442717"
"SADER REPRESENTACION AMECA","20.534254","-104.029535"
"SADER REPRESENTACION EL GRULLO","19.805291","-104.210585"
"SADER REPRESENTACION LA HUERT","19.48044","-104.638984"
"SADER REPRESENTACION MASCOTA","20.5194","-104.785495"
"SADER REPRESENTACION TAMAZULA","19.676091","-103.253158"
"SADER REPRESENTACION TEPATITLAN","20.810072","-102.753524"
"EDIFICIO MAO","20.679895","-103.349808"
"EDIFICIO MAO","20.679895","-103.349808"
"EDIFICIO MAO","20.679895","-103.349808"
"EX CONVENTO DEL CARMEN","20.675135","-103.353211"
"SC BIBLIOTECA RAMON GARIBAY RUIZ ","20.687125","-103.350619"
"SC CASA DE LA CULTURA","20.662233","-103.349369"
"SC CASA DE LA CULTURA","20.662233","-103.349369"
"SC CENTRO CULTURAL CHAPALA ","20.292723","-103.18292"
"SC CONSEJO ESTATAL PARA LA CULTURA Y LAS ARTES","20.689017","-103.350832"
"SC CULTURA BODEGA","20.657958","-103.349701"
"SC EX CONVENTO DEL CARMEN","20.675138","-103.353221"
"SC FORO DE ARTE Y CULTURA","20.700038","-103.348471"
"SC FORO DE ARTE Y CULTURA","20.700038","-103.348471"
"SC MUSEO ARTES POPULARES DE JALISCO","20.679562","-103.346082"
"SC MUSEO DE ANTROPOLOGIA DE OCCTE. (MAO)","20.679932","-103.349807"
"SC MUSEO REGIONAL DE LA ARTESANIA","20.639114","-103.314698"
"SC PATIO DE LOS ANGELES","20.66625","-103.343055"
"SC RED DE BIBLIOTECAS PUBLICAS","20.679932","-103.349807"
"SC RED DE BIBLIOTECAS PUBLICAS ","20.688897","-103.350832"
"SC TEATRO ALARIFE","20.69789","-103.348307"
"SC TEATRO DEGOLLADO","20.677113","-103.344488"
"SC XEJB PUERTO VALLARTA ","20.653211","-105.234771"
"SC EXCONVENTO DEL CARMEN","20.675138","-103.353221"
"SC MUSEO DE ARQUEOLOGIA DE OCCTE.   MAO","20.679932","-103.349807"
"DIRRECCION DE FOMENTO ARTESANAL","20.661331","-103.348094"
"EDIFICIO D SEPROE","20.673462","-103.369664"
"SEDECO EDIFICIO LOPEZ COTILLA","20.673402","-103.369695"
"CEDETEC","20.654326","-103.421325"
"CENTRO DE MAESTROS NO. 1434","20.52895","-103.361927"
"EDUCACION AVILA CAMACHO","20.696125","-103.350247"
"SE ALMACEN  AUTLAN","19.754653","-104.367956"
"SE ALMACEN AMECA","20.537046","-104.04243"
"SE ALMACEN COLOTLAN","",""
"SE ALMACEN DE EVENTOS ESPECIALES","20.696091","-103.361793"
"SE ALMACEN DE LIBROS DE TEXTO","20.644515","-103.443099"
"SE ALMACEN DRSE AJIJIC","20.302123","-103.191661"
"SE ALMACEN DRSE ALTOS NORTE","21.322712","-101.971552"
"SE ALMACEN DRSE AUTLAN","19.744986","-104.362011"
"SE ALMACEN GENERAL TEPATITLAN","20.797413","-102.767049"
"SE ASOCIACION DE PADRES DE FAMILIA","20.688462","-103.357982"
"SE BENEMERITA Y CENTENARIA ESCUELA NORNAL DE JALISCO","20.695251","-103.346707"
"SE BODEGA CD GUZMAN","19.697165","-103.460057"
"SE BODEGA DIEGO RIVERA EN GDL.","20.697807","-103.33961"
"SE BODEGA MIRAMAR","20.641695","-103.442763"
"SE BODEGA PUERTO VALLARTA","20.648451","-105.225968"
"SE BODEGA TEPATITLAN","20.797393","-102.767071"
"SE CEDETEC","20.654318","-103.421319"
"SE CENDI  NO. 03 GDL","20.733182","-103.317829"
"SE CENDI DE AJIJIC","20.299338","-103.268581"
"SE CENDI JUAN TABLADA","20.696912","-103.346887"
"SE CENDI NO 1 TZINTLICALLI ","20.72501","-103.429998"
"SE CENDI NO 2 GUADALUPE RODEA ","20.66765","-103.305421"
"SE CENDI NO 3 CD GUZMAN","19.702609","-103.475706"
"SE CENDI NO 4 BEATRIZ HERNANDEZ","20.657704","-105.235333"
"SE CENDI NO 9 CHISPITAS DEL CONOCIMIENTO","20.662467","-103.297596"
"SE CENDI NO. 11  AMIGOS DEL CONOCIMIENTO","20.702177","-103.336042"
"SE CENDI NO. 4 GABRIELA MISTRAL","21.353738","-101.930981"
"SE CENDI NO. 5 DE LAGOS","21.363823","-101.940314"
"SE CENDI NO. 6 GPE ELIZONDO VEGA  DE AUTLAN","19.763968","-104.363323"
"SE CENDI NO. 7 MANUEL CERVANTES IMAZ","20.634911","-103.44564"
"SE CENTRO DE ATENCION MULTIPLE NO. 31 AHUALULCO","20.706691","-103.975771"
"SE CENTRO DE INVESTIGACION GDL","20.669711","-103.37502"
"SE CENTRO DE INVESTIGACION ZAPOPAN","20.717326","-103.36713"
"SE CENTRO DE MAESTROS  CD GUZMAN","19.699553","-103.464814"
"SE CENTRO DE MAESTROS 1407 GDL","20.711447","-103.335925"
"SE CENTRO DE MAESTROS 1415","20.629429","-103.425238"
"SE CENTRO DE MAESTROS 1432 DE TALA","20.668554","-103.708837"
"SE CENTRO DE MAESTROS DE AMECA","20.53834","-104.039774"
"SE CENTRO DE MAESTROS DE COCULA","20.367586","-103.822204"
"SE CENTRO DE MAESTROS DE LAGOS","21.369606","-101.929257"
"SE CENTRO DE MAESTROS DE MASCOTA","20.54536","-104.81425"
"SE CENTRO DE MAESTROS DE OCOTLAN","20.362784","-102.778717"
"SE CENTRO DE MAESTROS DE PTO. VALLARTA","20.654068","-105.198291"
"SE CENTRO DE MAESTROS DE SAYULA","19.871536","-103.599959"
"SE CENTRO DE MAESTROS DE TALPA","20.380627","-104.825531"
"SE CENTRO DE MAESTROS DE TONALA","20.627656","-103.243594"
"SE CENTRO DE MAESTROS DE ZAPOPAN","20.731457","-103.360193"
"SE CENTRO DE MAESTROS GDL","20.696062","-103.35593"
"SE CENTRO DE MAESTROS GDL ESCUELA PRISCILIANO SANCHEZ","20.715472","-103.350882"
"SE CENTRO DE MAESTROS NO. 1418 CUAUTITLAN PRIMARIA PAULINO NAVARRO","19.450713","-104.35994"
"SE CENTRO DE MAESTROS NO. 1420 ETZATLAN","20.769073","-104.079988"
"SE CENTRO DE MAESTROS NO. 1421 YAHUALICA","21.184014","-102.889268"
"SE CENTRO DE MAESTROS NO. 1423 TEPATITLAN","20.805045","-102.784102"
"SE CONSEJO INTER-INSTITUCIONAL DE INVESTIGACION GDL","20.701897","-103.360343"
"SE DELEGACION REGIONAL ALTOS SUR","20.786825","-102.726523"
"SE DIR ACOMPAÑAMIENTO PEDAGOGICO","20.700881","-103.360079"
"SE DRSE  AMECA","20.549499","-104.047315"
"SE DRSE  COCULA","20.361161","-103.819811"
"SE DRSE  MASCOTA","20.522353","-104.783257"
"SE DRSE AUTLAN","19.769297","-104.36707"
"SE DRSE CD GUZMAN","19.70326","-103.462252"
"SE DRSE COCULA","20.361161","-103.819811"
"SE DRSE COCULA","20.361161","-103.819811"
"SE DRSE COLOTLAN","22.10879","-103.265346"
"SE DRSE DE TEPATITLAN","20.786825","-102.726523"
"SE DRSE DE TEPATITLAN","20.786825","-102.726523"
"SE DRSE LAGOS DE MORENO","21.322712","-101.971552"
"SE DRSE OCOTLAN","20.366931","-102.771193"
"SE DRSE OCOTLAN","20.366931","-102.771193"
"SE DRSE OJUELOS","21.862977","-101.594991"
"SE DRSE REGION CENTRO 3 ","20.634068","-103.325969"
"SE DRSE ZAPOPAN","20.645247","-103.442928"
"SE ESCUELA MERCEDES MADRIGAL DE CD GUZMAN","19.70473","-103.465922"
"SE ESCUELA NORMAL DE ARANDAS","20.702394","-102.340224"
"SE ESCUELA NORMAL DE ATEQUIZ","20.397503","-103.131623"
"SE ESCUELA NORMAL DE ATEQUIZA","20.397503","-103.131623"
"SE ESCUELA NORMAL DE COLOTLAN","22.106911","-103.271683"
"SE ESCUELA NORMAL DE EDUCACION FISICA GDL","20.698066","-103.390419"
"SE ESCUELA NORMAL DE EDUCADORAS DE UNION DE TULA","19.962160°","-104.263901°"
"SE ESCUELA NORMAL DE SAN ANTONIO MATUTE","20.563257°","-103.952892°"
"SE ESCUELA NORMAL DE UNION DE TULA","19.962160°","-104.263901°"
"SE ESCUELA NORMAL SUPERIOR DE ESPECIALIDADES DE ZAPOPAN","20.655774","-103.394929"
"SE ESCUELA NORMAL SUPERIOR DE JALISCO","20.712228","-103.335449"
"SE ESCUELA PRIMARIA JUAN DE LA BARRERA PTO. VALLARTA","20.672347","-105.209659"
"SE ESCUELA PRIMARIA URBANA NO. 352 PTO. VALLARTA","20.654068","-105.198291"
"SE ESCUELA SECUNDARIA NO. 1 CHAPALA","20.30107","-103.189151"
"SE ESCUELA SECUNDARIA NO. 13 ZAPOPAN","20.722335","-103.362112"
"SE ESCUELA SUPERIOR DE JALISCO","20.712216","-103.335473"
"SE ESCUELA SUPERIOR DE JALISCO","20.712216","-103.335473"
"SE FOMENTO ARTISTICO","20.69838","-103.353662"
"SE FOMENTO ARTISTICO","20.69838","-103.353662"
"SE FOMENTO ARTISTICO","20.69838","-103.353662"
"SE MEIPE CD GUZMAN","19.702041","-103.473199"
"SE MEIPE DE AVILA CAMACHO GDL","20.70809","-103.368015"
"SE MEIPE DE LISBOA EN GDL","20.71145","-103.335536"
"SE MEIPE DE SAN ANTONIO MATUTE","20.563257°","-103.952892°"
"SE MEIPE DE UNION DE TULA","19.962160°","-104.263901°"
"SE OSEJ  CD GUZMAN","",""
"SE PROGRAMA ACCIONES COMPENSATORIAS (PACAREIB)","20.705835","-103.354493"
"SE PROGRAMA NAL. PARA ACTUALIZACION PERMANENTE PARA MAESTROS","20.691793","-103.353636"
"SE REPRESENTACION OCOTLAN","",""
"SE SECTOR  EDUCATIVO NO. 5","20.805079","-102.784288"
"SE SIDE DE AV. TEPEYAC","20.651967","-103.439836"
"SE SUB DRSE  AJIJIC","20.299368","-103.253747"
"SE SUB DRSE  JALOSTOTITLAN","21.168319","-102.467129"
"SE SUB DRSE  LA HUERTA","19.482668","-104.638575"
"SE SUB DRSE  MAZAMITLA","19.921238","-103.017636"
"SE SUB DRSE  MAZAMITLA","19.921238","-103.017636"
"SE SUB DRSE  TALA","20.648964","-103.703365"
"SE SUB DRSE  TOMATLAN","19.940632","-105.247459"
"SE SUB DRSE  TOMATLAN ","19.940632","-105.247459"
"SE SUB DRSE ARANDAS","20.690714°","-102.348491°"
"SE SUB DRSE ARANDAS","20.690714°","-102.348491°"
"SE SUB DRSE ATOTONILCO","20.544499","-102.525269"
"SE SUB DRSE AYUTLA","20.1262407","-104.346527"
"SE SUB DRSE HUEJUQUILLA","22.627895","-103.895944"
"SE SUB DRSE OJUELOS","21.861983","-101.594422"
"SE SUB DRSE TEOCALTICHE","21.43444","-102.565377"
"PROSOC DEFENSORIA DE OFICIOS TEQUILA","20.880415","-103.829182"
"SE SUB-DRSE  IXTLAHUACAN DEL RIO","20.863786","-103.24"
"SE SUB-DRSE  OJUELOS","21.861993","-101.594444"
"SE SUB-DRSE ATENGUILLO","20.414977","-104.493678"
"SE SUB-DRSE JALOSTOTILAN ","21.166071","-102.469876"
"SE SUB-DRSE JOCOTEPEC","20.285667","-103.428314"
"SE SUB-DRSE MAZAMITLA","19.924107","-103.030618"
"SE SUB-DRSE TALA","20.648916","-103.703385"
"SE SUB-DRSE TECOLOTLAN","20.187784","-104.040912"
"SE SUB-DRSE ZACUALCO","20.225302","-103.575681"
"SE TROMPO MAGICO","20.723117","-103.431703"
"SE UNIVERSIDAD TECNOLOGICA DE JALISCO (UTJ)","20.616751","-103.355877"
"SE UPN AUTLAN","19.766584","-104.377333"
"SE UPN CD GUZMAN","19.696406","-103.478168"
"SE UPN DE  LUIS MANUEL ROJAS","20.731256","-103.359626"
"SE UPN DE PLAN DE SAN LUIS","20.697493","-103.362322"
"SE UPN MELAQUE","19.24002","-104.55958"
"SE UPN TLAQUEPAQUE","20.631816","-103.300999"
"SE UPN TLAQUEPAQUE DE PEDRO CORONEL","20.63298","-103.301471"
"SE URSE AMECA","20.547652","-104.046625"
"DOCC","20.620084","-103.461888"
"SE ALMACEN GENERAL","20.633151","-103.437219"
"SE ALMACEN TUTELAR ","20.641659","-103.442693"
"SE DERSE OCOTLAN","20.367305","-102.770907"
"SE DERSE PUERTO VALLARTA","20.638292","-105.215987"
"SE DIPTA","20.6544","-103.421451"
"SE DIR EVALUACION EDUCATIVA GDL","20.67186","-103.395365"
"SE DRSE 1 DE ENRIQUE DIAZ DE LEON","20.657101","-103.362966"
"SE DRSE 2 DE PERIFERICO PONIENTE","20.645247","-103.442928"
"SE DRSE 3 DE GLEZ GALLO","20.634148","-103.325881"
"SE DRSE DE CD GUZMAN","19.70326","-103.462252"
"SE DRSE TEPATITLAN","20.815838","-102.757879"
"SE EDIFICIO AV.CENTRAL","20.72503","-103.429998"
"SE EDIFICIO AVILA CAMACHO","20.696007","-103.35055"
"SE MEIPE DE CD GUZMAN","19.701488","-103.473085"
"SE NORMAL BENEMERITA","20.695241","-103.346688"
"SE NORMAL EDUCACION FISICA","20.698061","-103.390414"
"SE NORMAL EDUCADORAS","20.629386","-103.425253"
"SE NORMAL ESPECIALIDADES","20.655748","-103.394924"
"SE NORMAL SUPERIOR JALISCO","20.7122","-103.335465"
"SE PROGRAMA VER BIEN PARA APRENDER MEJOR","20.672331","-103.350644"
"SUB-DRSE DELEGACION TLAJOMULCO","20.511869","-103.373901"
"EDIFICIO SRIA IGUALDAD SUSTANTIVA ENTRE MUJERES Y HOMBRES","20.671726","-103.38111"
"EDIFICIO SRIA IGUALDAD SUSTANTIVA ENTRE MUJERES Y HOMBRES","20.671764","-103.347732"
